{"type": "FeatureCollection", "id": "http://data.archaeology.link/data/spphaefen/Harbour_collection", "name": "Harbour Instances Collection", "features": [{"type": "Feature", "id": "http://data.archaeology.link/data/spphaefen/64", "name": "Barton (64)", "dateprops": [], "properties": {}, "geometry": {"type": "Point", "coordinates": [-2.749, 53.835]}}, {"type": "Feature", "id": "http://data.archaeology.link/data/spphaefen/1137", "name": "Mondeville 1, 1780/81 (1137)", "dateprops": [], "properties": {}, "geometry": {"type": "Point", "coordinates": [-0.325, 49.181]}}, {"type": "Feature", "id": "http://data.archaeology.link/data/spphaefen/2881", "name": "Zutphen (2881)", "dateprops": [], "properties": {}, "geometry": {"type": "Point", "coordinates": [6.191, 52.145]}}, {"type": "Feature", "id": "http://data.archaeology.link/data/spphaefen/3004", "name": "Kazimierz Pomorski, pow. Koszalin (3004)", "dateprops": [], "properties": {}, "geometry": {"type": "Point", "coordinates": [16.027, 54.225]}}, {"type": "Feature", "id": "http://data.archaeology.link/data/spphaefen/805", "name": "Kidholmene, Guds\u00f8 vig (805)", "dateprops": [], "properties": {}, "geometry": {"type": "Point", "coordinates": [9.574, 55.522]}}, {"type": "Feature", "id": "http://data.archaeology.link/data/spphaefen/349", "name": "River Bann, Derrybroughas Townland (Fry No. 52) (349)", "dateprops": [], "properties": {}, "geometry": {"type": "Point", "coordinates": [-6.437, 54.473]}}, {"type": "Feature", "id": "http://data.archaeology.link/data/spphaefen/1787", "name": "Kailbacher Winkel (1787)", "dateprops": [], "properties": {}, "geometry": {"type": "Point", "coordinates": [12.378, 47.883]}}, {"type": "Feature", "id": "http://data.archaeology.link/data/spphaefen/532", "name": "Loch Glashan (Mowat No. A36) (532)", "dateprops": [], "properties": {}, "geometry": {"type": "Point", "coordinates": [-5.344, 56.09]}}, {"type": "Feature", "id": "http://data.archaeology.link/data/spphaefen/398", "name": "River Quoile, Inch Townland (Fry No. 88; Gregory I223) (398)", "dateprops": [], "properties": {}, "geometry": {"type": "Point", "coordinates": [-5.725, 54.337]}}, {"type": "Feature", "id": "http://data.archaeology.link/data/spphaefen/607", "name": "Llyn Llydaw (607)", "dateprops": [], "properties": {}, "geometry": {"type": "Point", "coordinates": [-4.049, 53.067]}}, {"type": "Feature", "id": "http://data.archaeology.link/data/spphaefen/1056", "name": "Donzacq, 1878 (1056)", "dateprops": [], "properties": {}, "geometry": {"type": "Point", "coordinates": [-0.804, 43.657]}}, {"type": "Feature", "id": "http://data.archaeology.link/data/spphaefen/1185", "name": "Pont-Ch\u00e2teau, Catiho 1 (1185)", "dateprops": [], "properties": {}, "geometry": {"type": "Point", "coordinates": [-2.035, 47.461]}}, {"type": "Feature", "id": "http://data.archaeology.link/data/spphaefen/1378", "name": "Arneburg (1378)", "dateprops": [], "properties": {}, "geometry": {"type": "Point", "coordinates": [12.014, 52.673]}}, {"type": "Feature", "id": "http://data.archaeology.link/data/spphaefen/168", "name": "Mortlake (168)", "dateprops": [], "properties": {}, "geometry": {"type": "Point", "coordinates": [-0.266, 51.471]}}, {"type": "Feature", "id": "http://data.archaeology.link/data/spphaefen/1222", "name": "Pont-Ch\u00e2teau, Le Pr\u00e9 du Cr\u00f4le 2 (1222)", "dateprops": [], "properties": {}, "geometry": {"type": "Point", "coordinates": [-2.046, 47.454]}}, {"type": "Feature", "id": "http://data.archaeology.link/data/spphaefen/1333", "name": "Taillebourg - P8 (1333)", "dateprops": [], "properties": {}, "geometry": {"type": "Point", "coordinates": [-0.641, 45.828]}}, {"type": "Feature", "id": "http://data.archaeology.link/data/spphaefen/2149", "name": "Schwerin (Museumsst\u00fcck ohne Fundangabe) (2149)", "dateprops": [], "properties": {}, "geometry": {"type": "Point", "coordinates": [11.414, 53.628]}}, {"type": "Feature", "id": "http://data.archaeology.link/data/spphaefen/1239", "name": "Port Berteau II (1239)", "dateprops": [], "properties": {}, "geometry": {"type": "Point", "coordinates": [-0.626, 45.776]}}, {"type": "Feature", "id": "http://data.archaeology.link/data/spphaefen/1657", "name": "Garstadt (1657)", "dateprops": [], "properties": {}, "geometry": {"type": "Point", "coordinates": [10.181, 49.971]}}, {"type": "Feature", "id": "http://data.archaeology.link/data/spphaefen/3000", "name": "Kalisz II, pow. Koscierzyna (3000)", "dateprops": [], "properties": {}, "geometry": {"type": "Point", "coordinates": [18.09, 51.763]}}, {"type": "Feature", "id": "http://data.archaeology.link/data/spphaefen/215", "name": "Thornaby (215)", "dateprops": [], "properties": {}, "geometry": {"type": "Point", "coordinates": [-1.308, 54.541]}}, {"type": "Feature", "id": "http://data.archaeology.link/data/spphaefen/1411", "name": "Berend (1411)", "dateprops": [], "properties": {}, "geometry": {"type": "Point", "coordinates": [9.557, 54.551]}}, {"type": "Feature", "id": "http://data.archaeology.link/data/spphaefen/2218", "name": "Stocksee (2218)", "dateprops": [], "properties": {}, "geometry": {"type": "Point", "coordinates": [10.355, 54.086]}}, {"type": "Feature", "id": "http://data.archaeology.link/data/spphaefen/2588", "name": "Oldbridge (Gregory I322) (2588)", "dateprops": [], "properties": {}, "geometry": {"type": "Point", "coordinates": [-6.404, 53.719]}}, {"type": "Feature", "id": "http://data.archaeology.link/data/spphaefen/821", "name": "Linderumg\u00e5rd (821)", "dateprops": [], "properties": {}, "geometry": {"type": "Point", "coordinates": [10.137, 57.424]}}, {"type": "Feature", "id": "http://data.archaeology.link/data/spphaefen/2383", "name": "Ballynahinch 2 (Gregory I037) (2383)", "dateprops": [], "properties": {}, "geometry": {"type": "Point", "coordinates": [-7.664, 53.397]}}, {"type": "Feature", "id": "http://data.archaeology.link/data/spphaefen/2227", "name": "Stralsund 1 (2227)", "dateprops": [], "properties": {}, "geometry": {"type": "Point", "coordinates": [13.091, 54.319]}}, {"type": "Feature", "id": "http://data.archaeology.link/data/spphaefen/1058", "name": "Dreffeac (Ile Biron) (1058)", "dateprops": [], "properties": {}, "geometry": {"type": "Point", "coordinates": [-2.031, 47.464]}}, {"type": "Feature", "id": "http://data.archaeology.link/data/spphaefen/81", "name": "Byfleet (81)", "dateprops": [], "properties": {}, "geometry": {"type": "Point", "coordinates": [-0.487, 51.339]}}, {"type": "Feature", "id": "http://data.archaeology.link/data/spphaefen/220", "name": "Walton (220)", "dateprops": [], "properties": {}, "geometry": {"type": "Point", "coordinates": [-0.422, 51.391]}}, {"type": "Feature", "id": "http://data.archaeology.link/data/spphaefen/206", "name": "Stainfield 2 (206)", "dateprops": [], "properties": {}, "geometry": {"type": "Point", "coordinates": [-0.353, 53.228]}}, {"type": "Feature", "id": "http://data.archaeology.link/data/spphaefen/424", "name": "Barnkirk (Mowat No. 6) (424)", "dateprops": [], "properties": {}, "geometry": {"type": "Point", "coordinates": [-4.516, 54.963]}}, {"type": "Feature", "id": "http://data.archaeology.link/data/spphaefen/1898", "name": "Lunow (1898)", "dateprops": [], "properties": {}, "geometry": {"type": "Point", "coordinates": [14.126, 52.922]}}, {"type": "Feature", "id": "http://data.archaeology.link/data/spphaefen/3239", "name": "L\u00f6rby (3239)", "dateprops": [], "properties": {}, "geometry": {"type": "Point", "coordinates": [14.722, 56.074]}}, {"type": "Feature", "id": "http://data.archaeology.link/data/spphaefen/550", "name": "Loch Leven (Mowat No. 116) (550)", "dateprops": [], "properties": {}, "geometry": {"type": "Point", "coordinates": [-3.404, 56.194]}}, {"type": "Feature", "id": "http://data.archaeology.link/data/spphaefen/335", "name": "Mill Lough, Killyfole Townland, West of Rosslea 2 (Fry No. 76) (335)", "dateprops": [], "properties": {}, "geometry": {"type": "Point", "coordinates": [-7.289, 54.229]}}, {"type": "Feature", "id": "http://data.archaeology.link/data/spphaefen/379", "name": "River Foyle (a) at Strabane (West Ward Townland), Co. Tyrone and (b) at Lifford (Town Parks Townland) (Fry No. 67; Gregory I370) (379)", "dateprops": [], "properties": {}, "geometry": {"type": "Point", "coordinates": [-7.474, 54.833]}}, {"type": "Feature", "id": "http://data.archaeology.link/data/spphaefen/1136", "name": "Moncey, Doubs (1136)", "dateprops": [], "properties": {}, "geometry": {"type": "Point", "coordinates": [6.119, 47.365]}}, {"type": "Feature", "id": "http://data.archaeology.link/data/spphaefen/1447", "name": "Bodensee 1997/2 (W226) (1447)", "dateprops": [], "properties": {}, "geometry": {"type": "Point", "coordinates": [9.195, 47.732]}}, {"type": "Feature", "id": "http://data.archaeology.link/data/spphaefen/1712", "name": "G\u00fctzkow (1712)", "dateprops": [], "properties": {}, "geometry": {"type": "Point", "coordinates": [13.41, 53.938]}}, {"type": "Feature", "id": "http://data.archaeology.link/data/spphaefen/3391", "name": "Pf\u00e4ffikon (3391)", "dateprops": [], "properties": {}, "geometry": {"type": "Point", "coordinates": [8.778, 47.208]}}, {"type": "Feature", "id": "http://data.archaeology.link/data/spphaefen/1577", "name": "Emscher 2 (1577)", "dateprops": [], "properties": {}, "geometry": {"type": "Point", "coordinates": [7.027, 51.521]}}, {"type": "Feature", "id": "http://data.archaeology.link/data/spphaefen/2608", "name": "Summerville (Gregory I354) (2608)", "dateprops": [], "properties": {}, "geometry": {"type": "Point", "coordinates": [-9.118, 53.257]}}, {"type": "Feature", "id": "http://data.archaeology.link/data/spphaefen/328", "name": "Lower Lough Erne, off Crevinish Townland, near Kesh (Fry No. 51; Gregory I125) (328)", "dateprops": [], "properties": {}, "geometry": {"type": "Point", "coordinates": [-7.746, 54.522]}}, {"type": "Feature", "id": "http://data.archaeology.link/data/spphaefen/3017", "name": "Krzyzanowice (3017)", "dateprops": [], "properties": {}, "geometry": {"type": "Point", "coordinates": [18.284, 49.991]}}, {"type": "Feature", "id": "http://data.archaeology.link/data/spphaefen/2545", "name": "Levallinree 3 (Gregory I266) (2545)", "dateprops": [], "properties": {}, "geometry": {"type": "Point", "coordinates": [-9.214, 53.924]}}, {"type": "Feature", "id": "http://data.archaeology.link/data/spphaefen/1169", "name": "Parentis-en-Born, 1883 (1169)", "dateprops": [], "properties": {}, "geometry": {"type": "Point", "coordinates": [-1.11, 44.341]}}, {"type": "Feature", "id": "http://data.archaeology.link/data/spphaefen/1708", "name": "Gr\u00fcnow (1708)", "dateprops": [], "properties": {}, "geometry": {"type": "Point", "coordinates": [13.954, 53.301]}}, {"type": "Feature", "id": "http://data.archaeology.link/data/spphaefen/647", "name": "Sotin (647)", "dateprops": [], "properties": {}, "geometry": {"type": "Point", "coordinates": [19.104, 45.299]}}, {"type": "Feature", "id": "http://data.archaeology.link/data/spphaefen/2354", "name": "Ardakillin 1 (Gregory I005) (2354)", "dateprops": [], "properties": {}, "geometry": {"type": "Point", "coordinates": [-8.183, 53.755]}}, {"type": "Feature", "id": "http://data.archaeology.link/data/spphaefen/3145", "name": "Geraz do Lima (3145)", "dateprops": [], "properties": {}, "geometry": {"type": "Point", "coordinates": [-8.685, 41.724]}}, {"type": "Feature", "id": "http://data.archaeology.link/data/spphaefen/2876", "name": "Woerden 5 (2876)", "dateprops": [], "properties": {}, "geometry": {"type": "Point", "coordinates": [4.888, 52.089]}}, {"type": "Feature", "id": "http://data.archaeology.link/data/spphaefen/714", "name": "Bjedstrup (714)", "dateprops": [], "properties": {}, "geometry": {"type": "Point", "coordinates": [9.855, 56.066]}}, {"type": "Feature", "id": "http://data.archaeology.link/data/spphaefen/1010", "name": "Caen-B (1010)", "dateprops": [], "properties": {}, "geometry": {"type": "Point", "coordinates": [-0.337, 49.186]}}, {"type": "Feature", "id": "http://data.archaeology.link/data/spphaefen/3166", "name": "Oreshek (3166)", "dateprops": [], "properties": {}, "geometry": {"type": "Point", "coordinates": [31.024, 59.94]}}, {"type": "Feature", "id": "http://data.archaeology.link/data/spphaefen/824", "name": "Ly\u00f8 (824)", "dateprops": [], "properties": {}, "geometry": {"type": "Point", "coordinates": [10.152, 55.044]}}, {"type": "Feature", "id": "http://data.archaeology.link/data/spphaefen/402", "name": "River Tempo, West of Killynure Bridge, Near Maguiresbridge (Fry No. 115) (402)", "dateprops": [], "properties": {}, "geometry": {"type": "Point", "coordinates": [-7.478, 54.298]}}, {"type": "Feature", "id": "http://data.archaeology.link/data/spphaefen/2487", "name": "Drummans Lower (Gregory I180) (2487)", "dateprops": [], "properties": {}, "geometry": {"type": "Point", "coordinates": [-8.103, 54.154]}}, {"type": "Feature", "id": "http://data.archaeology.link/data/spphaefen/2366", "name": "Ballindoon 1 (Gregory I020) (2366)", "dateprops": [], "properties": {}, "geometry": {"type": "Point", "coordinates": [-8.324, 54.08]}}, {"type": "Feature", "id": "http://data.archaeology.link/data/spphaefen/1111", "name": "Lyon (rue Bourgelat n\u00b016) (1111)", "dateprops": [], "properties": {}, "geometry": {"type": "Point", "coordinates": [4.828, 45.753]}}, {"type": "Feature", "id": "http://data.archaeology.link/data/spphaefen/2437", "name": "Co. Leitrim ('Cambridge') (2437)", "dateprops": [], "properties": {}, "geometry": {"type": "Point", "coordinates": [-7.969, 54.116]}}, {"type": "Feature", "id": "http://data.archaeology.link/data/spphaefen/1107", "name": "L'Union 1 (1107)", "dateprops": [], "properties": {}, "geometry": {"type": "Point", "coordinates": [1.469, 43.646]}}, {"type": "Feature", "id": "http://data.archaeology.link/data/spphaefen/264", "name": "Confluence of Rivers Finn and Mourne,West of Strabane (Fry No. 91; Gregory I349) (264)", "dateprops": [], "properties": {}, "geometry": {"type": "Point", "coordinates": [-7.545, 54.795]}}, {"type": "Feature", "id": "http://data.archaeology.link/data/spphaefen/386", "name": "River Foyle, Strabane (West Ward Townland) 1 (Fry No. 77; Gregory I342) (386)", "dateprops": [], "properties": {}, "geometry": {"type": "Point", "coordinates": [-7.47, 54.836]}}, {"type": "Feature", "id": "http://data.archaeology.link/data/spphaefen/900", "name": "S\u00f8nders\u00f8, Lille V\u00e6rl\u00f8se (900)", "dateprops": [], "properties": {}, "geometry": {"type": "Point", "coordinates": [12.354, 55.775]}}, {"type": "Feature", "id": "http://data.archaeology.link/data/spphaefen/2361", "name": "Ballaghadereen (Gregory I015) (2361)", "dateprops": [], "properties": {}, "geometry": {"type": "Point", "coordinates": [-8.579, 53.902]}}, {"type": "Feature", "id": "http://data.archaeology.link/data/spphaefen/407", "name": "Termonbacca 3 (I361) (407)", "dateprops": [], "properties": {}, "geometry": {"type": "Point", "coordinates": [-7.444, 54.931]}}, {"type": "Feature", "id": "http://data.archaeology.link/data/spphaefen/720", "name": "B\u00f8lling S\u00f8 IV (720)", "dateprops": [], "properties": {}, "geometry": {"type": "Point", "coordinates": [9.348, 56.182]}}, {"type": "Feature", "id": "http://data.archaeology.link/data/spphaefen/936", "name": "Vemmingbund (936)", "dateprops": [], "properties": {}, "geometry": {"type": "Point", "coordinates": [9.703, 54.896]}}, {"type": "Feature", "id": "http://data.archaeology.link/data/spphaefen/684", "name": "Ti\u0161ice (684)", "dateprops": [], "properties": {}, "geometry": {"type": "Point", "coordinates": [14.543, 50.267]}}, {"type": "Feature", "id": "http://data.archaeology.link/data/spphaefen/2365", "name": "Ballinderry 3 (Gregory I019) (2365)", "dateprops": [], "properties": {}, "geometry": {"type": "Point", "coordinates": [-7.346, 53.51]}}, {"type": "Feature", "id": "http://data.archaeology.link/data/spphaefen/1889", "name": "Linum (1889)", "dateprops": [], "properties": {}, "geometry": {"type": "Point", "coordinates": [12.858, 52.785]}}, {"type": "Feature", "id": "http://data.archaeology.link/data/spphaefen/2245", "name": "Timmendorf-Nordmole I - Einbaum 4 (2245)", "dateprops": [], "properties": {}, "geometry": {"type": "Point", "coordinates": [11.373, 53.994]}}, {"type": "Feature", "id": "http://data.archaeology.link/data/spphaefen/2334", "name": "Zapfendorf (2334)", "dateprops": [], "properties": {}, "geometry": {"type": "Point", "coordinates": [10.921, 50.016]}}, {"type": "Feature", "id": "http://data.archaeology.link/data/spphaefen/3061", "name": "Poznan (Museumsst\u00fcck ohne Fundangabe) (3061)", "dateprops": [], "properties": {}, "geometry": {"type": "Point", "coordinates": [16.932, 52.407]}}, {"type": "Feature", "id": "http://data.archaeology.link/data/spphaefen/40", "name": "Br\u00fcgge, Port-de-mer (40)", "dateprops": [], "properties": {}, "geometry": {"type": "Point", "coordinates": [3.222, 51.231]}}, {"type": "Feature", "id": "http://data.archaeology.link/data/spphaefen/783", "name": "Heln\u00e6s Bugten (783)", "dateprops": [], "properties": {}, "geometry": {"type": "Point", "coordinates": [10.063, 55.153]}}, {"type": "Feature", "id": "http://data.archaeology.link/data/spphaefen/67", "name": "Bossington (67)", "dateprops": [], "properties": {}, "geometry": {"type": "Point", "coordinates": [-1.524, 51.077]}}, {"type": "Feature", "id": "http://data.archaeology.link/data/spphaefen/2584", "name": "Monk's Boat (2584)", "dateprops": [], "properties": {}, "geometry": {"type": "Point", "coordinates": [-7.199, 53.662]}}, {"type": "Feature", "id": "http://data.archaeology.link/data/spphaefen/1937", "name": "Meerbusch-B\u00fcderich, Lkr.Rhein-Kreis Neuss (1937)", "dateprops": [], "properties": {}, "geometry": {"type": "Point", "coordinates": [6.71, 51.26]}}, {"type": "Feature", "id": "http://data.archaeology.link/data/spphaefen/1224", "name": "Pont-Ch\u00e2teau, Le Prieur\u00e9 2 (1224)", "dateprops": [], "properties": {}, "geometry": {"type": "Point", "coordinates": [-2.083, 47.439]}}, {"type": "Feature", "id": "http://data.archaeology.link/data/spphaefen/1430", "name": "Biesenthal (1430)", "dateprops": [], "properties": {}, "geometry": {"type": "Point", "coordinates": [13.61, 52.772]}}, {"type": "Feature", "id": "http://data.archaeology.link/data/spphaefen/1502", "name": "Burg (1502)", "dateprops": [], "properties": {}, "geometry": {"type": "Point", "coordinates": [9.249, 53.985]}}, {"type": "Feature", "id": "http://data.archaeology.link/data/spphaefen/2290", "name": "Wangels LA 505 - Paddel 2 (2290)", "dateprops": [], "properties": {}, "geometry": {"type": "Point", "coordinates": [10.82, 54.303]}}, {"type": "Feature", "id": "http://data.archaeology.link/data/spphaefen/103", "name": "East Ferry (103)", "dateprops": [], "properties": {}, "geometry": {"type": "Point", "coordinates": [-0.775, 53.488]}}, {"type": "Feature", "id": "http://data.archaeology.link/data/spphaefen/3132", "name": "Wolin, pow. Kamien Pomorski (3132)", "dateprops": [], "properties": {}, "geometry": {"type": "Point", "coordinates": [14.619, 53.843]}}, {"type": "Feature", "id": "http://data.archaeology.link/data/spphaefen/2864", "name": "Utrecht-Waterstraat 3 (2864)", "dateprops": [], "properties": {}, "geometry": {"type": "Point", "coordinates": [5.115, 52.095]}}, {"type": "Feature", "id": "http://data.archaeology.link/data/spphaefen/3357", "name": "Hallwil, Einbaum (3357)", "dateprops": [], "properties": {}, "geometry": {"type": "Point", "coordinates": [8.195, 47.323]}}, {"type": "Feature", "id": "http://data.archaeology.link/data/spphaefen/1590", "name": "Federseeried 1843 (Federsee 21) (1590)", "dateprops": [], "properties": {}, "geometry": {"type": "Point", "coordinates": [9.627, 48.087]}}, {"type": "Feature", "id": "http://data.archaeology.link/data/spphaefen/1015", "name": "Carnac, 1931 (1015)", "dateprops": [], "properties": {}, "geometry": {"type": "Point", "coordinates": [-3.091, 47.579]}}, {"type": "Feature", "id": "http://data.archaeology.link/data/spphaefen/1487", "name": "Bremen-Freihafen 5 (1487)", "dateprops": [], "properties": {}, "geometry": {"type": "Point", "coordinates": [8.785, 53.09]}}, {"type": "Feature", "id": "http://data.archaeology.link/data/spphaefen/1200", "name": "Pont-Ch\u00e2teau, La Roche Civant 2 (1200)", "dateprops": [], "properties": {}, "geometry": {"type": "Point", "coordinates": [-2.1, 47.408]}}, {"type": "Feature", "id": "http://data.archaeology.link/data/spphaefen/2147", "name": "Schweinfurt (Museumsst\u00fcck ohne Fundangabe) (2147)", "dateprops": [], "properties": {}, "geometry": {"type": "Point", "coordinates": [10.234, 50.045]}}, {"type": "Feature", "id": "http://data.archaeology.link/data/spphaefen/1005", "name": "Bussac-sur-Charente (Port-Berteau 1) (1005)", "dateprops": [], "properties": {}, "geometry": {"type": "Point", "coordinates": [-0.627, 45.777]}}, {"type": "Feature", "id": "http://data.archaeology.link/data/spphaefen/1593", "name": "Federseeried 1880 (Federsee 17) (1593)", "dateprops": [], "properties": {}, "geometry": {"type": "Point", "coordinates": [9.645, 48.075]}}, {"type": "Feature", "id": "http://data.archaeology.link/data/spphaefen/1881", "name": "Lehde (1881)", "dateprops": [], "properties": {}, "geometry": {"type": "Point", "coordinates": [13.991, 51.863]}}, {"type": "Feature", "id": "http://data.archaeology.link/data/spphaefen/2069", "name": "Rankwitz (2069)", "dateprops": [], "properties": {}, "geometry": {"type": "Point", "coordinates": [13.916, 53.945]}}, {"type": "Feature", "id": "http://data.archaeology.link/data/spphaefen/284", "name": "Larne Lough, Ballylig (Intake) Townland, near Magheramorne 2 (Fry No. 114) (284)", "dateprops": [], "properties": {}, "geometry": {"type": "Point", "coordinates": [-6.37, 55.009]}}, {"type": "Feature", "id": "http://data.archaeology.link/data/spphaefen/1758", "name": "Hessisch-Oldendorf, Lkr. Hameln-Pyrmont (1758)", "dateprops": [], "properties": {}, "geometry": {"type": "Point", "coordinates": [9.276, 52.149]}}, {"type": "Feature", "id": "http://data.archaeology.link/data/spphaefen/3160", "name": "Ladogasee, 1878 (3160)", "dateprops": [], "properties": {}, "geometry": {"type": "Point", "coordinates": [31.345, 59.922]}}, {"type": "Feature", "id": "http://data.archaeology.link/data/spphaefen/1557", "name": "Durmersheim, Lkr. Rastatt (1557)", "dateprops": [], "properties": {}, "geometry": {"type": "Point", "coordinates": [8.253, 48.923]}}, {"type": "Feature", "id": "http://data.archaeology.link/data/spphaefen/8", "name": "Klopeiner See 2 (8)", "dateprops": [], "properties": {}, "geometry": {"type": "Point", "coordinates": [14.586, 46.605]}}, {"type": "Feature", "id": "http://data.archaeology.link/data/spphaefen/1458", "name": "Boitin (1458)", "dateprops": [], "properties": {}, "geometry": {"type": "Point", "coordinates": [11.985, 53.755]}}, {"type": "Feature", "id": "http://data.archaeology.link/data/spphaefen/913", "name": "Taksensand, Als (913)", "dateprops": [], "properties": {}, "geometry": {"type": "Point", "coordinates": [9.972, 55.017]}}, {"type": "Feature", "id": "http://data.archaeology.link/data/spphaefen/3414", "name": "Walchwil (3414)", "dateprops": [], "properties": {}, "geometry": {"type": "Point", "coordinates": [8.512, 47.098]}}, {"type": "Feature", "id": "http://data.archaeology.link/data/spphaefen/2429", "name": "Cloontarsna 2 (Gregory I091) (2429)", "dateprops": [], "properties": {}, "geometry": {"type": "Point", "coordinates": [-8.631, 53.774]}}, {"type": "Feature", "id": "http://data.archaeology.link/data/spphaefen/2565", "name": "Lough Gara 4 (Gregory I282) (2565)", "dateprops": [], "properties": {}, "geometry": {"type": "Point", "coordinates": [-8.429, 53.951]}}, {"type": "Feature", "id": "http://data.archaeology.link/data/spphaefen/3135", "name": "Wyszeb\u00f3rz, pow. Koszalin (3135)", "dateprops": [], "properties": {}, "geometry": {"type": "Point", "coordinates": [16.33, 54.145]}}, {"type": "Feature", "id": "http://data.archaeology.link/data/spphaefen/2150", "name": "Schweriner See (2150)", "dateprops": [], "properties": {}, "geometry": {"type": "Point", "coordinates": [11.465, 53.723]}}, {"type": "Feature", "id": "http://data.archaeology.link/data/spphaefen/846", "name": "Nyk\u00f8bing Sj. (846)", "dateprops": [], "properties": {}, "geometry": {"type": "Point", "coordinates": [11.667, 55.925]}}, {"type": "Feature", "id": "http://data.archaeology.link/data/spphaefen/249", "name": "Worthing (249)", "dateprops": [], "properties": {}, "geometry": {"type": "Point", "coordinates": [-0.368, 50.809]}}, {"type": "Feature", "id": "http://data.archaeology.link/data/spphaefen/2058", "name": "Potsdam, Palazzo Pompei (2058)", "dateprops": [], "properties": {}, "geometry": {"type": "Point", "coordinates": [13.061, 52.396]}}, {"type": "Feature", "id": "http://data.archaeology.link/data/spphaefen/2351", "name": "Ahascragh (Gregory I001) (2351)", "dateprops": [], "properties": {}, "geometry": {"type": "Point", "coordinates": [-8.335, 53.398]}}, {"type": "Feature", "id": "http://data.archaeology.link/data/spphaefen/2477", "name": "Doon 3 (Gregory I168) (2477)", "dateprops": [], "properties": {}, "geometry": {"type": "Point", "coordinates": [-8.656, 52.82]}}, {"type": "Feature", "id": "http://data.archaeology.link/data/spphaefen/420", "name": "Auchlishie (Mowat No. 3) (420)", "dateprops": [], "properties": {}, "geometry": {"type": "Point", "coordinates": [-3.002, 56.709]}}, {"type": "Feature", "id": "http://data.archaeology.link/data/spphaefen/3372", "name": "Le Landeron (3372)", "dateprops": [], "properties": {}, "geometry": {"type": "Point", "coordinates": [7.077, 47.057]}}, {"type": "Feature", "id": "http://data.archaeology.link/data/spphaefen/1796", "name": "Kayhude (1796)", "dateprops": [], "properties": {}, "geometry": {"type": "Point", "coordinates": [10.129, 53.745]}}, {"type": "Feature", "id": "http://data.archaeology.link/data/spphaefen/2590", "name": "Portaliff (Gregory I327) (2590)", "dateprops": [], "properties": {}, "geometry": {"type": "Point", "coordinates": [-7.529, 54.018]}}, {"type": "Feature", "id": "http://data.archaeology.link/data/spphaefen/2341", "name": "Bracs 1 (2341)", "dateprops": [], "properties": {}, "geometry": {"type": "Point", "coordinates": [17.453, 45.949]}}, {"type": "Feature", "id": "http://data.archaeology.link/data/spphaefen/2807", "name": "Kapel-Avezaath, Gelderland (2807)", "dateprops": [], "properties": {}, "geometry": {"type": "Point", "coordinates": [5.362, 51.878]}}, {"type": "Feature", "id": "http://data.archaeology.link/data/spphaefen/1894", "name": "L\u00f6wenstedt (1894)", "dateprops": [], "properties": {}, "geometry": {"type": "Point", "coordinates": [9.172, 54.621]}}, {"type": "Feature", "id": "http://data.archaeology.link/data/spphaefen/3023", "name": "Lazno, jezioro, pow. Olecko (3023)", "dateprops": [], "properties": {}, "geometry": {"type": "Point", "coordinates": [22.212, 54.089]}}, {"type": "Feature", "id": "http://data.archaeology.link/data/spphaefen/463", "name": "Erskine 2 (Mowat No. 40) (463)", "dateprops": [], "properties": {}, "geometry": {"type": "Point", "coordinates": [-4.459, 55.916]}}, {"type": "Feature", "id": "http://data.archaeology.link/data/spphaefen/486", "name": "Glasgow, Point House (Mowat No. 62) (486)", "dateprops": [], "properties": {}, "geometry": {"type": "Point", "coordinates": [-4.309, 55.866]}}, {"type": "Feature", "id": "http://data.archaeology.link/data/spphaefen/521", "name": "Loch Chaluim Chille 1 (Mowat No. 94) (521)", "dateprops": [], "properties": {}, "geometry": {"type": "Point", "coordinates": [-6.403, 57.632]}}, {"type": "Feature", "id": "http://data.archaeology.link/data/spphaefen/277", "name": "Drummond Bog, Drurnmond/Crossdernot Townlands (Fry No. 18) (277)", "dateprops": [], "properties": {}, "geometry": {"type": "Point", "coordinates": [-6.81, 54.55]}}, {"type": "Feature", "id": "http://data.archaeology.link/data/spphaefen/2402", "name": "Church Island (Gregory I062) (2402)", "dateprops": [], "properties": {}, "geometry": {"type": "Point", "coordinates": [-6.486, 54.789]}}, {"type": "Feature", "id": "http://data.archaeology.link/data/spphaefen/18", "name": "Salzburg 4 (Museumsst\u00fcck ohne Fundangabe) (18)", "dateprops": [], "properties": {}, "geometry": {"type": "Point", "coordinates": [13.046, 47.8]}}, {"type": "Feature", "id": "http://data.archaeology.link/data/spphaefen/1760", "name": "H\u00f6chst (1760)", "dateprops": [], "properties": {}, "geometry": {"type": "Point", "coordinates": [8.55, 50.098]}}, {"type": "Feature", "id": "http://data.archaeology.link/data/spphaefen/2516", "name": "Killygar 2 (Gregory I233) (2516)", "dateprops": [], "properties": {}, "geometry": {"type": "Point", "coordinates": [-7.606, 54.001]}}, {"type": "Feature", "id": "http://data.archaeology.link/data/spphaefen/2826", "name": "Meinerswijk I (2826)", "dateprops": [], "properties": {}, "geometry": {"type": "Point", "coordinates": [5.879, 51.975]}}, {"type": "Feature", "id": "http://data.archaeology.link/data/spphaefen/35", "name": "Anvers (Amerikadok) (35)", "dateprops": [], "properties": {}, "geometry": {"type": "Point", "coordinates": [4.399, 51.245]}}, {"type": "Feature", "id": "http://data.archaeology.link/data/spphaefen/1602", "name": "Federseeried 1927/3 (Federsee 4) (1602)", "dateprops": [], "properties": {}, "geometry": {"type": "Point", "coordinates": [9.626, 48.08]}}, {"type": "Feature", "id": "http://data.archaeology.link/data/spphaefen/2198", "name": "Steinhude (2198)", "dateprops": [], "properties": {}, "geometry": {"type": "Point", "coordinates": [9.357, 52.459]}}, {"type": "Feature", "id": "http://data.archaeology.link/data/spphaefen/1306", "name": "Sanguinet 5, Landes (1306)", "dateprops": [], "properties": {}, "geometry": {"type": "Point", "coordinates": [-1.112, 44.482]}}, {"type": "Feature", "id": "http://data.archaeology.link/data/spphaefen/1376", "name": "Arendsee 2 (1376)", "dateprops": [], "properties": {}, "geometry": {"type": "Point", "coordinates": [11.479, 52.886]}}, {"type": "Feature", "id": "http://data.archaeology.link/data/spphaefen/248", "name": "Woolwich (248)", "dateprops": [], "properties": {}, "geometry": {"type": "Point", "coordinates": [0.066, 51.495]}}, {"type": "Feature", "id": "http://data.archaeology.link/data/spphaefen/3309", "name": "Carouge (3309)", "dateprops": [], "properties": {}, "geometry": {"type": "Point", "coordinates": [6.144, 46.187]}}, {"type": "Feature", "id": "http://data.archaeology.link/data/spphaefen/606", "name": "Llyn Llangorse (606)", "dateprops": [], "properties": {}, "geometry": {"type": "Point", "coordinates": [-3.268, 51.934]}}, {"type": "Feature", "id": "http://data.archaeology.link/data/spphaefen/3431", "name": "Fluss Ockol (3431)", "dateprops": [], "properties": {}, "geometry": {"type": "Point", "coordinates": [38.336, 49.005]}}, {"type": "Feature", "id": "http://data.archaeology.link/data/spphaefen/1190", "name": "Pont-Ch\u00e2teau, Co\u00ebt Roz 2 (1190)", "dateprops": [], "properties": {}, "geometry": {"type": "Point", "coordinates": [-2.071, 47.442]}}, {"type": "Feature", "id": "http://data.archaeology.link/data/spphaefen/515", "name": "Linlithgow, Sheriff Court-house (Mowat No. 89) (515)", "dateprops": [], "properties": {}, "geometry": {"type": "Point", "coordinates": [-3.601, 55.976]}}, {"type": "Feature", "id": "http://data.archaeology.link/data/spphaefen/1702", "name": "Grube-Rosenhof LA 58 - Paddel 7 (1702)", "dateprops": [], "properties": {}, "geometry": {"type": "Point", "coordinates": [11.034, 54.254]}}, {"type": "Feature", "id": "http://data.archaeology.link/data/spphaefen/2403", "name": "Church Island (Gregory I063) (2403)", "dateprops": [], "properties": {}, "geometry": {"type": "Point", "coordinates": [-6.487, 54.789]}}, {"type": "Feature", "id": "http://data.archaeology.link/data/spphaefen/2751", "name": "Torbiera di Bande di Cavrlana 4 (2751)", "dateprops": [], "properties": {}, "geometry": {"type": "Point", "coordinates": [10.603, 45.348]}}, {"type": "Feature", "id": "http://data.archaeology.link/data/spphaefen/2109", "name": "Roseninsel (2109)", "dateprops": [], "properties": {}, "geometry": {"type": "Point", "coordinates": [11.308, 47.94]}}, {"type": "Feature", "id": "http://data.archaeology.link/data/spphaefen/878", "name": "Ry\u00e5, Vendsyssel (878)", "dateprops": [], "properties": {}, "geometry": {"type": "Point", "coordinates": [9.703, 57.159]}}, {"type": "Feature", "id": "http://data.archaeology.link/data/spphaefen/1353", "name": "Vivy, L'Authion (1353)", "dateprops": [], "properties": {}, "geometry": {"type": "Point", "coordinates": [-0.06, 47.319]}}, {"type": "Feature", "id": "http://data.archaeology.link/data/spphaefen/1547", "name": "Dudinghausen 2 (1547)", "dateprops": [], "properties": {}, "geometry": {"type": "Point", "coordinates": [12.213, 53.923]}}, {"type": "Feature", "id": "http://data.archaeology.link/data/spphaefen/1518", "name": "Dalkendorf (1518)", "dateprops": [], "properties": {}, "geometry": {"type": "Point", "coordinates": [12.502, 53.814]}}, {"type": "Feature", "id": "http://data.archaeology.link/data/spphaefen/3232", "name": "Kvillehed (3232)", "dateprops": [], "properties": {}, "geometry": {"type": "Point", "coordinates": [11.849, 57.793]}}, {"type": "Feature", "id": "http://data.archaeology.link/data/spphaefen/1262", "name": "Saint-Anne-sur Brivet (Le Port 2) (1262)", "dateprops": [], "properties": {}, "geometry": {"type": "Point", "coordinates": [-2.034, 47.457]}}, {"type": "Feature", "id": "http://data.archaeology.link/data/spphaefen/2619", "name": "Trinity Island 4 (Gregory I376) (2619)", "dateprops": [], "properties": {}, "geometry": {"type": "Point", "coordinates": [-7.464, 53.985]}}, {"type": "Feature", "id": "http://data.archaeology.link/data/spphaefen/254", "name": "Ardtonnagh (Gregory I012) (254)", "dateprops": [], "properties": {}, "geometry": {"type": "Point", "coordinates": [-7.634, 54.294]}}, {"type": "Feature", "id": "http://data.archaeology.link/data/spphaefen/2231", "name": "Strau\u00dfberg (2231)", "dateprops": [], "properties": {}, "geometry": {"type": "Point", "coordinates": [13.876, 52.552]}}, {"type": "Feature", "id": "http://data.archaeology.link/data/spphaefen/1396", "name": "Bamberg (Museumsst\u00fcck ohne Fundangabe) (1396)", "dateprops": [], "properties": {}, "geometry": {"type": "Point", "coordinates": [10.886, 49.891]}}, {"type": "Feature", "id": "http://data.archaeology.link/data/spphaefen/2773", "name": "Amsterdam, Nieuwezijds Kolk (2773)", "dateprops": [], "properties": {}, "geometry": {"type": "Point", "coordinates": [4.894, 52.376]}}, {"type": "Feature", "id": "http://data.archaeology.link/data/spphaefen/2976", "name": "Gdansk (Museumsst\u00fcck ohne Fundangabe) (2976)", "dateprops": [], "properties": {}, "geometry": {"type": "Point", "coordinates": [18.649, 54.353]}}, {"type": "Feature", "id": "http://data.archaeology.link/data/spphaefen/400", "name": "River Roe, Bellarena Townland, near Limavady (Fry No. 42; Gregory I043)) (400)", "dateprops": [], "properties": {}, "geometry": {"type": "Point", "coordinates": [-6.96, 55.111]}}, {"type": "Feature", "id": "http://data.archaeology.link/data/spphaefen/1244", "name": "Port la Pierre (1244)", "dateprops": [], "properties": {}, "geometry": {"type": "Point", "coordinates": [-0.639, 45.818]}}, {"type": "Feature", "id": "http://data.archaeology.link/data/spphaefen/903", "name": "Sparresholm II (903)", "dateprops": [], "properties": {}, "geometry": {"type": "Point", "coordinates": [11.951, 55.239]}}, {"type": "Feature", "id": "http://data.archaeology.link/data/spphaefen/3369", "name": "La Neuveville-Chavannes 1869 (3369)", "dateprops": [], "properties": {}, "geometry": {"type": "Point", "coordinates": [7.13, 47.081]}}, {"type": "Feature", "id": "http://data.archaeology.link/data/spphaefen/2922", "name": "Biale Jezioro, pow. Gniezno (2922)", "dateprops": [], "properties": {}, "geometry": {"type": "Point", "coordinates": [19.517, 52.492]}}, {"type": "Feature", "id": "http://data.archaeology.link/data/spphaefen/3383", "name": "M\u00f6rigen 1854-2 (3383)", "dateprops": [], "properties": {}, "geometry": {"type": "Point", "coordinates": [7.2, 47.086]}}, {"type": "Feature", "id": "http://data.archaeology.link/data/spphaefen/644", "name": "Sisak I (644)", "dateprops": [], "properties": {}, "geometry": {"type": "Point", "coordinates": [16.369, 45.484]}}, {"type": "Feature", "id": "http://data.archaeology.link/data/spphaefen/2212", "name": "Stettfeld, Lkr. Ha\u00dfberge (2212)", "dateprops": [], "properties": {}, "geometry": {"type": "Point", "coordinates": [10.721, 49.963]}}, {"type": "Feature", "id": "http://data.archaeology.link/data/spphaefen/2250", "name": "Timmendorf-Nordmole III - Einbaum 1 (mehrere Fragmente) (2250)", "dateprops": [], "properties": {}, "geometry": {"type": "Point", "coordinates": [11.375, 53.995]}}, {"type": "Feature", "id": "http://data.archaeology.link/data/spphaefen/1589", "name": "Falkenseebach (1589)", "dateprops": [], "properties": {}, "geometry": {"type": "Point", "coordinates": [12.765, 47.75]}}, {"type": "Feature", "id": "http://data.archaeology.link/data/spphaefen/2068", "name": "Rangsdorf (2068)", "dateprops": [], "properties": {}, "geometry": {"type": "Point", "coordinates": [13.439, 52.291]}}, {"type": "Feature", "id": "http://data.archaeology.link/data/spphaefen/1085", "name": "Havre, 1788 (1085)", "dateprops": [], "properties": {}, "geometry": {"type": "Point", "coordinates": [0.118, 49.488]}}, {"type": "Feature", "id": "http://data.archaeology.link/data/spphaefen/2228", "name": "Stralsund 2 (2228)", "dateprops": [], "properties": {}, "geometry": {"type": "Point", "coordinates": [13.091, 54.319]}}, {"type": "Feature", "id": "http://data.archaeology.link/data/spphaefen/3404", "name": "Sutz-Lattrigen 1941 (3404)", "dateprops": [], "properties": {}, "geometry": {"type": "Point", "coordinates": [7.207, 47.1]}}, {"type": "Feature", "id": "http://data.archaeology.link/data/spphaefen/1979", "name": "Neuendorf (1979)", "dateprops": [], "properties": {}, "geometry": {"type": "Point", "coordinates": [13.933, 54.039]}}, {"type": "Feature", "id": "http://data.archaeology.link/data/spphaefen/955", "name": "Eurajoki (955)", "dateprops": [], "properties": {}, "geometry": {"type": "Point", "coordinates": [21.733, 61.201]}}, {"type": "Feature", "id": "http://data.archaeology.link/data/spphaefen/3055", "name": "Pajersko, jezioro, pow. Byt\u00f3w (3055)", "dateprops": [], "properties": {}, "geometry": {"type": "Point", "coordinates": [17.495, 54.171]}}, {"type": "Feature", "id": "http://data.archaeology.link/data/spphaefen/2743", "name": "Torbiera del lago di Fimon 4 (2743)", "dateprops": [], "properties": {}, "geometry": {"type": "Point", "coordinates": [11.543, 45.471]}}, {"type": "Feature", "id": "http://data.archaeology.link/data/spphaefen/2254", "name": "Troisdorf (2254)", "dateprops": [], "properties": {}, "geometry": {"type": "Point", "coordinates": [7.161, 50.838]}}, {"type": "Feature", "id": "http://data.archaeology.link/data/spphaefen/2428", "name": "Cloontarsna 1 (Gregory I090) (2428)", "dateprops": [], "properties": {}, "geometry": {"type": "Point", "coordinates": [-8.631, 53.774]}}, {"type": "Feature", "id": "http://data.archaeology.link/data/spphaefen/1104", "name": "Lit-et-Mixe 1, 1900 (1104)", "dateprops": [], "properties": {}, "geometry": {"type": "Point", "coordinates": [-1.258, 44.033]}}, {"type": "Feature", "id": "http://data.archaeology.link/data/spphaefen/1823", "name": "Kleinostheim (1823)", "dateprops": [], "properties": {}, "geometry": {"type": "Point", "coordinates": [9.046, 50.007]}}, {"type": "Feature", "id": "http://data.archaeology.link/data/spphaefen/1542", "name": "Dornbuschwrack I (1542)", "dateprops": [], "properties": {}, "geometry": {"type": "Point", "coordinates": [13.718, 52.939]}}, {"type": "Feature", "id": "http://data.archaeology.link/data/spphaefen/1011", "name": "Caen-C (1011)", "dateprops": [], "properties": {}, "geometry": {"type": "Point", "coordinates": [-0.355, 49.177]}}, {"type": "Feature", "id": "http://data.archaeology.link/data/spphaefen/2620", "name": "Trinity Island 5 (Gregory I377) (2620)", "dateprops": [], "properties": {}, "geometry": {"type": "Point", "coordinates": [-7.465, 53.986]}}, {"type": "Feature", "id": "http://data.archaeology.link/data/spphaefen/2037", "name": "Osterscheps (2037)", "dateprops": [], "properties": {}, "geometry": {"type": "Point", "coordinates": [7.939, 53.111]}}, {"type": "Feature", "id": "http://data.archaeology.link/data/spphaefen/1030", "name": "Charavines 1 (1030)", "dateprops": [], "properties": {}, "geometry": {"type": "Point", "coordinates": [5.518, 45.437]}}, {"type": "Feature", "id": "http://data.archaeology.link/data/spphaefen/849", "name": "Ogarde I (849)", "dateprops": [], "properties": {}, "geometry": {"type": "Point", "coordinates": [11.585, 55.605]}}, {"type": "Feature", "id": "http://data.archaeology.link/data/spphaefen/2632", "name": "Whitewood 2 (Gregory I400) (2632)", "dateprops": [], "properties": {}, "geometry": {"type": "Point", "coordinates": [-6.793, 53.836]}}, {"type": "Feature", "id": "http://data.archaeology.link/data/spphaefen/2866", "name": "Velsen (2866)", "dateprops": [], "properties": {}, "geometry": {"type": "Point", "coordinates": [4.643, 52.463]}}, {"type": "Feature", "id": "http://data.archaeology.link/data/spphaefen/2155", "name": "Seeheim, Lkr. Bad T\u00f6lz-Wolfratshausen (2155)", "dateprops": [], "properties": {}, "geometry": {"type": "Point", "coordinates": [11.331, 47.883]}}, {"type": "Feature", "id": "http://data.archaeology.link/data/spphaefen/2", "name": "Lake Sevan (2)", "dateprops": [], "properties": {}, "geometry": {"type": "Point", "coordinates": [45.387, 40.308]}}, {"type": "Feature", "id": "http://data.archaeology.link/data/spphaefen/1219", "name": "Pont-Ch\u00e2teau, Le port 6 (1219)", "dateprops": [], "properties": {}, "geometry": {"type": "Point", "coordinates": [-2.037, 47.454]}}, {"type": "Feature", "id": "http://data.archaeology.link/data/spphaefen/3430", "name": "Drutskoye (3430)", "dateprops": [], "properties": {}, "geometry": {"type": "Point", "coordinates": [31.314, 51.484]}}, {"type": "Feature", "id": "http://data.archaeology.link/data/spphaefen/97", "name": "Clewer (97)", "dateprops": [], "properties": {}, "geometry": {"type": "Point", "coordinates": [-2.804, 51.256]}}, {"type": "Feature", "id": "http://data.archaeology.link/data/spphaefen/2525", "name": "Kilturbid (Gregory I242) (2525)", "dateprops": [], "properties": {}, "geometry": {"type": "Point", "coordinates": [-7.957, 54.032]}}, {"type": "Feature", "id": "http://data.archaeology.link/data/spphaefen/2532", "name": "Kingsland 7 (Gregory I249) (2532)", "dateprops": [], "properties": {}, "geometry": {"type": "Point", "coordinates": [-8.412, 53.912]}}, {"type": "Feature", "id": "http://data.archaeology.link/data/spphaefen/3140", "name": "Zielnowo I, pow. Slawno (3140)", "dateprops": [], "properties": {}, "geometry": {"type": "Point", "coordinates": [16.488, 54.438]}}, {"type": "Feature", "id": "http://data.archaeology.link/data/spphaefen/1763", "name": "Hohenweststedt (1763)", "dateprops": [], "properties": {}, "geometry": {"type": "Point", "coordinates": [9.625, 54.087]}}, {"type": "Feature", "id": "http://data.archaeology.link/data/spphaefen/998", "name": "Bourg-Charente (998)", "dateprops": [], "properties": {}, "geometry": {"type": "Point", "coordinates": [-0.224, 45.674]}}, {"type": "Feature", "id": "http://data.archaeology.link/data/spphaefen/2023", "name": "Obereisenheim (2023)", "dateprops": [], "properties": {}, "geometry": {"type": "Point", "coordinates": [10.17, 49.883]}}, {"type": "Feature", "id": "http://data.archaeology.link/data/spphaefen/656", "name": "Horn\u00ed / Doln\u00ed Jiret\u00edn (656)", "dateprops": [], "properties": {}, "geometry": {"type": "Point", "coordinates": [13.583, 50.559]}}, {"type": "Feature", "id": "http://data.archaeology.link/data/spphaefen/2423", "name": "Cloonfinlough 1 (Gregory I085) (2423)", "dateprops": [], "properties": {}, "geometry": {"type": "Point", "coordinates": [-8.152, 53.755]}}, {"type": "Feature", "id": "http://data.archaeology.link/data/spphaefen/2979", "name": "Glazica, pow. Wejherowo (2979)", "dateprops": [], "properties": {}, "geometry": {"type": "Point", "coordinates": [18.206, 54.503]}}, {"type": "Feature", "id": "http://data.archaeology.link/data/spphaefen/1738", "name": "Hannover (Museumsst\u00fcck ohne Fundangabe) (1738)", "dateprops": [], "properties": {}, "geometry": {"type": "Point", "coordinates": [9.734, 52.375]}}, {"type": "Feature", "id": "http://data.archaeology.link/data/spphaefen/3258", "name": "Sk\u00e4ggered (3258)", "dateprops": [], "properties": {}, "geometry": {"type": "Point", "coordinates": [11.832, 57.766]}}, {"type": "Feature", "id": "http://data.archaeology.link/data/spphaefen/1225", "name": "Pont-Ch\u00e2teau, Le Prieur\u00e9 3 (1225)", "dateprops": [], "properties": {}, "geometry": {"type": "Point", "coordinates": [-2.083, 47.439]}}, {"type": "Feature", "id": "http://data.archaeology.link/data/spphaefen/418", "name": "Acharacle (Mowat No. 1) (418)", "dateprops": [], "properties": {}, "geometry": {"type": "Point", "coordinates": [-5.806, 56.748]}}, {"type": "Feature", "id": "http://data.archaeology.link/data/spphaefen/618", "name": "Donja Varo\u0161 (618)", "dateprops": [], "properties": {}, "geometry": {"type": "Point", "coordinates": [17.216, 45.15]}}, {"type": "Feature", "id": "http://data.archaeology.link/data/spphaefen/1083", "name": "Gueugnon 1 (1083)", "dateprops": [], "properties": {}, "geometry": {"type": "Point", "coordinates": [4.056, 46.589]}}, {"type": "Feature", "id": "http://data.archaeology.link/data/spphaefen/1051", "name": "Courchapon, 1885 (1051)", "dateprops": [], "properties": {}, "geometry": {"type": "Point", "coordinates": [5.744, 47.265]}}, {"type": "Feature", "id": "http://data.archaeology.link/data/spphaefen/2287", "name": "Wanfried (2287)", "dateprops": [], "properties": {}, "geometry": {"type": "Point", "coordinates": [10.166, 51.181]}}, {"type": "Feature", "id": "http://data.archaeology.link/data/spphaefen/1643", "name": "Fischbeck (1643)", "dateprops": [], "properties": {}, "geometry": {"type": "Point", "coordinates": [9.277, 52.146]}}, {"type": "Feature", "id": "http://data.archaeology.link/data/spphaefen/1884", "name": "Leoni, Lkr. Starnberg (1884)", "dateprops": [], "properties": {}, "geometry": {"type": "Point", "coordinates": [11.343, 47.958]}}, {"type": "Feature", "id": "http://data.archaeology.link/data/spphaefen/2319", "name": "Wolmirstedt (Museumsst\u00fcck ohne Fundangabe) (2319)", "dateprops": [], "properties": {}, "geometry": {"type": "Point", "coordinates": [11.628, 52.249]}}, {"type": "Feature", "id": "http://data.archaeology.link/data/spphaefen/1379", "name": "Artlenburg (1379)", "dateprops": [], "properties": {}, "geometry": {"type": "Point", "coordinates": [10.491, 53.377]}}, {"type": "Feature", "id": "http://data.archaeology.link/data/spphaefen/1414", "name": "Berlin - K\u00f6penick (1414)", "dateprops": [], "properties": {}, "geometry": {"type": "Point", "coordinates": [13.648, 52.438]}}, {"type": "Feature", "id": "http://data.archaeology.link/data/spphaefen/1965", "name": "M\u00fcnster-Angelmodde (1965)", "dateprops": [], "properties": {}, "geometry": {"type": "Point", "coordinates": [7.697, 51.921]}}, {"type": "Feature", "id": "http://data.archaeology.link/data/spphaefen/1325", "name": "Taillebourg - P15 (1325)", "dateprops": [], "properties": {}, "geometry": {"type": "Point", "coordinates": [-0.64, 45.829]}}, {"type": "Feature", "id": "http://data.archaeology.link/data/spphaefen/2805", "name": "Hunze (2805)", "dateprops": [], "properties": {}, "geometry": {"type": "Point", "coordinates": [6.541, 52.995]}}, {"type": "Feature", "id": "http://data.archaeology.link/data/spphaefen/2248", "name": "Timmendorf-Nordmole II - Einbaum 1 (2248)", "dateprops": [], "properties": {}, "geometry": {"type": "Point", "coordinates": [11.373, 53.992]}}, {"type": "Feature", "id": "http://data.archaeology.link/data/spphaefen/1319", "name": "Taillebourg - P1 (1319)", "dateprops": [], "properties": {}, "geometry": {"type": "Point", "coordinates": [-0.642, 45.827]}}, {"type": "Feature", "id": "http://data.archaeology.link/data/spphaefen/297", "name": "Lough Fingrean, near Mountfleld (Fry No. 56; Gregory I002) (297)", "dateprops": [], "properties": {}, "geometry": {"type": "Point", "coordinates": [-7.115, 54.644]}}, {"type": "Feature", "id": "http://data.archaeology.link/data/spphaefen/383", "name": "River Foyle at Lifford Bridge, Strabane 2 (Fry No. 93; Gregory I398) (383)", "dateprops": [], "properties": {}, "geometry": {"type": "Point", "coordinates": [-7.48, 54.832]}}, {"type": "Feature", "id": "http://data.archaeology.link/data/spphaefen/3415", "name": "Wangen an der Aare (3415)", "dateprops": [], "properties": {}, "geometry": {"type": "Point", "coordinates": [7.657, 47.237]}}, {"type": "Feature", "id": "http://data.archaeology.link/data/spphaefen/119", "name": "Hardham 3 (119)", "dateprops": [], "properties": {}, "geometry": {"type": "Point", "coordinates": [-0.529, 50.938]}}, {"type": "Feature", "id": "http://data.archaeology.link/data/spphaefen/3001", "name": "Kamien Pomorski I (3001)", "dateprops": [], "properties": {}, "geometry": {"type": "Point", "coordinates": [14.755, 53.983]}}, {"type": "Feature", "id": "http://data.archaeology.link/data/spphaefen/1986", "name": "Neustadt LA 156 - Einbaum 1 (1986)", "dateprops": [], "properties": {}, "geometry": {"type": "Point", "coordinates": [10.815, 54.098]}}, {"type": "Feature", "id": "http://data.archaeology.link/data/spphaefen/2883", "name": "Zwammerdam 2 (2883)", "dateprops": [], "properties": {}, "geometry": {"type": "Point", "coordinates": [4.717, 52.107]}}, {"type": "Feature", "id": "http://data.archaeology.link/data/spphaefen/1500", "name": "B\u00fcderich Kanal (1500)", "dateprops": [], "properties": {}, "geometry": {"type": "Point", "coordinates": [6.588, 51.629]}}, {"type": "Feature", "id": "http://data.archaeology.link/data/spphaefen/2373", "name": "Ballydoogan (Gregory I026) (2373)", "dateprops": [], "properties": {}, "geometry": {"type": "Point", "coordinates": [-8.513, 54.27]}}, {"type": "Feature", "id": "http://data.archaeology.link/data/spphaefen/170", "name": "Mythop (170)", "dateprops": [], "properties": {}, "geometry": {"type": "Point", "coordinates": [-2.971, 53.806]}}, {"type": "Feature", "id": "http://data.archaeology.link/data/spphaefen/2368", "name": "Ballinphort (Gregory I022) (2368)", "dateprops": [], "properties": {}, "geometry": {"type": "Point", "coordinates": [-7.397, 53.472]}}, {"type": "Feature", "id": "http://data.archaeology.link/data/spphaefen/2810", "name": "Katwijk Zanderij II (2810)", "dateprops": [], "properties": {}, "geometry": {"type": "Point", "coordinates": [4.415, 52.193]}}, {"type": "Feature", "id": "http://data.archaeology.link/data/spphaefen/2818", "name": "Kessel (2818)", "dateprops": [], "properties": {}, "geometry": {"type": "Point", "coordinates": [5.404, 51.809]}}, {"type": "Feature", "id": "http://data.archaeology.link/data/spphaefen/645", "name": "Sisak II (645)", "dateprops": [], "properties": {}, "geometry": {"type": "Point", "coordinates": [16.37, 45.488]}}, {"type": "Feature", "id": "http://data.archaeology.link/data/spphaefen/1122", "name": "Lyon 4 (1122)", "dateprops": [], "properties": {}, "geometry": {"type": "Point", "coordinates": [4.826, 45.758]}}, {"type": "Feature", "id": "http://data.archaeology.link/data/spphaefen/3037", "name": "Marwice I, pow. Gryfino (3037)", "dateprops": [], "properties": {}, "geometry": {"type": "Point", "coordinates": [14.406, 53.173]}}, {"type": "Feature", "id": "http://data.archaeology.link/data/spphaefen/839", "name": "Nationalmuseet III (Museumsst\u00fcck ohne Fundangabe) (839)", "dateprops": [], "properties": {}, "geometry": {"type": "Point", "coordinates": [12.59, 55.68]}}, {"type": "Feature", "id": "http://data.archaeology.link/data/spphaefen/1960", "name": "Motzen (1960)", "dateprops": [], "properties": {}, "geometry": {"type": "Point", "coordinates": [13.583, 52.205]}}, {"type": "Feature", "id": "http://data.archaeology.link/data/spphaefen/890", "name": "Skodborg Aa (Konge\u00e5en) (890)", "dateprops": [], "properties": {}, "geometry": {"type": "Point", "coordinates": [9.058, 55.437]}}, {"type": "Feature", "id": "http://data.archaeology.link/data/spphaefen/2325", "name": "Wustrow (2325)", "dateprops": [], "properties": {}, "geometry": {"type": "Point", "coordinates": [12.953, 53.227]}}, {"type": "Feature", "id": "http://data.archaeology.link/data/spphaefen/1730", "name": "Hameln (1730)", "dateprops": [], "properties": {}, "geometry": {"type": "Point", "coordinates": [9.351, 52.1]}}, {"type": "Feature", "id": "http://data.archaeology.link/data/spphaefen/1142", "name": "Montseugny, 1841 (1142)", "dateprops": [], "properties": {}, "geometry": {"type": "Point", "coordinates": [5.492, 47.331]}}, {"type": "Feature", "id": "http://data.archaeology.link/data/spphaefen/2124", "name": "Schackendorf (2124)", "dateprops": [], "properties": {}, "geometry": {"type": "Point", "coordinates": [10.281, 53.962]}}, {"type": "Feature", "id": "http://data.archaeology.link/data/spphaefen/2524", "name": "Kilmore (Gregory I241) (2524)", "dateprops": [], "properties": {}, "geometry": {"type": "Point", "coordinates": [-8.331, 54.264]}}, {"type": "Feature", "id": "http://data.archaeology.link/data/spphaefen/200", "name": "Snape (Grave 0328) (200)", "dateprops": [], "properties": {}, "geometry": {"type": "Point", "coordinates": [1.5, 52.166]}}, {"type": "Feature", "id": "http://data.archaeology.link/data/spphaefen/3233", "name": "Kyrksj\u00f6n (3233)", "dateprops": [], "properties": {}, "geometry": {"type": "Point", "coordinates": [17.916, 59.349]}}, {"type": "Feature", "id": "http://data.archaeology.link/data/spphaefen/1855", "name": "Krefeld-Gellep 'Kahn III' (1855)", "dateprops": [], "properties": {}, "geometry": {"type": "Point", "coordinates": [6.676, 51.338]}}, {"type": "Feature", "id": "http://data.archaeology.link/data/spphaefen/589", "name": "Redkirk Point 1 (Mowat No. 146) (589)", "dateprops": [], "properties": {}, "geometry": {"type": "Point", "coordinates": [-3.092, 54.974]}}, {"type": "Feature", "id": "http://data.archaeology.link/data/spphaefen/150", "name": "Marlow (150)", "dateprops": [], "properties": {}, "geometry": {"type": "Point", "coordinates": [-0.763, 51.566]}}, {"type": "Feature", "id": "http://data.archaeology.link/data/spphaefen/1317", "name": "Strasbourg - K\u00f6nigshofen (1317)", "dateprops": [], "properties": {}, "geometry": {"type": "Point", "coordinates": [7.721, 48.576]}}, {"type": "Feature", "id": "http://data.archaeology.link/data/spphaefen/2302", "name": "Wesel (2302)", "dateprops": [], "properties": {}, "geometry": {"type": "Point", "coordinates": [6.614, 51.642]}}, {"type": "Feature", "id": "http://data.archaeology.link/data/spphaefen/677", "name": "Prerov n. Labem (677)", "dateprops": [], "properties": {}, "geometry": {"type": "Point", "coordinates": [14.822, 50.174]}}, {"type": "Feature", "id": "http://data.archaeology.link/data/spphaefen/1464", "name": "Born-Forst (1464)", "dateprops": [], "properties": {}, "geometry": {"type": "Point", "coordinates": [12.565, 54.399]}}, {"type": "Feature", "id": "http://data.archaeology.link/data/spphaefen/2399", "name": "Cavan (Gregory I057) (2399)", "dateprops": [], "properties": {}, "geometry": {"type": "Point", "coordinates": [-8.023, 54.127]}}, {"type": "Feature", "id": "http://data.archaeology.link/data/spphaefen/2010", "name": "Nienburg (Museumsst\u00fcck ohne Fundangabe) (2010)", "dateprops": [], "properties": {}, "geometry": {"type": "Point", "coordinates": [9.218, 52.639]}}, {"type": "Feature", "id": "http://data.archaeology.link/data/spphaefen/1704", "name": "Grube-Rosenhof LA 58 - Paddel 9 (1704)", "dateprops": [], "properties": {}, "geometry": {"type": "Point", "coordinates": [11.035, 54.255]}}, {"type": "Feature", "id": "http://data.archaeology.link/data/spphaefen/1648", "name": "Fort Malakoff 1, Mainz (1648)", "dateprops": [], "properties": {}, "geometry": {"type": "Point", "coordinates": [8.281, 49.996]}}, {"type": "Feature", "id": "http://data.archaeology.link/data/spphaefen/50", "name": "Pommeroeul F (50)", "dateprops": [], "properties": {}, "geometry": {"type": "Point", "coordinates": [3.704, 50.463]}}, {"type": "Feature", "id": "http://data.archaeology.link/data/spphaefen/628", "name": "Kremenici I (628)", "dateprops": [], "properties": {}, "geometry": {"type": "Point", "coordinates": [14.524, 45.128]}}, {"type": "Feature", "id": "http://data.archaeology.link/data/spphaefen/2380", "name": "Ballyhaunis 2 (Gregory I033) (2380)", "dateprops": [], "properties": {}, "geometry": {"type": "Point", "coordinates": [-8.764, 53.762]}}, {"type": "Feature", "id": "http://data.archaeology.link/data/spphaefen/2020", "name": "Obereisenheim (2020)", "dateprops": [], "properties": {}, "geometry": {"type": "Point", "coordinates": [10.185, 49.891]}}, {"type": "Feature", "id": "http://data.archaeology.link/data/spphaefen/2315", "name": "Wipfeld (2315)", "dateprops": [], "properties": {}, "geometry": {"type": "Point", "coordinates": [10.182, 49.914]}}, {"type": "Feature", "id": "http://data.archaeology.link/data/spphaefen/911", "name": "Svendborgsund (911)", "dateprops": [], "properties": {}, "geometry": {"type": "Point", "coordinates": [10.622, 55.058]}}, {"type": "Feature", "id": "http://data.archaeology.link/data/spphaefen/2550", "name": "Lough Corrib (Gregory I275) (2550)", "dateprops": [], "properties": {}, "geometry": {"type": "Point", "coordinates": [-9.278, 53.477]}}, {"type": "Feature", "id": "http://data.archaeology.link/data/spphaefen/1674", "name": "G\u00f6ttingen-Geismar 1 (1674)", "dateprops": [], "properties": {}, "geometry": {"type": "Point", "coordinates": [9.917, 51.518]}}, {"type": "Feature", "id": "http://data.archaeology.link/data/spphaefen/2050", "name": "Pforzheim (2050)", "dateprops": [], "properties": {}, "geometry": {"type": "Point", "coordinates": [8.713, 48.89]}}, {"type": "Feature", "id": "http://data.archaeology.link/data/spphaefen/2872", "name": "Woerden 1 (2872)", "dateprops": [], "properties": {}, "geometry": {"type": "Point", "coordinates": [4.883, 52.088]}}, {"type": "Feature", "id": "http://data.archaeology.link/data/spphaefen/3271", "name": "Aegeri 2 (3271)", "dateprops": [], "properties": {}, "geometry": {"type": "Point", "coordinates": [8.615, 47.124]}}, {"type": "Feature", "id": "http://data.archaeology.link/data/spphaefen/2652", "name": "Cavriana (2652)", "dateprops": [], "properties": {}, "geometry": {"type": "Point", "coordinates": [10.601, 45.374]}}, {"type": "Feature", "id": "http://data.archaeology.link/data/spphaefen/3154", "name": "Timisoara (3154)", "dateprops": [], "properties": {}, "geometry": {"type": "Point", "coordinates": [21.166, 45.732]}}, {"type": "Feature", "id": "http://data.archaeology.link/data/spphaefen/2948", "name": "Chelmno (2948)", "dateprops": [], "properties": {}, "geometry": {"type": "Point", "coordinates": [18.417, 53.365]}}, {"type": "Feature", "id": "http://data.archaeology.link/data/spphaefen/3434", "name": "Island Hortitsa 1 (3434)", "dateprops": [], "properties": {}, "geometry": {"type": "Point", "coordinates": [35.096, 47.822]}}, {"type": "Feature", "id": "http://data.archaeology.link/data/spphaefen/3136", "name": "Zabnica, pow. Gryfino (3136)", "dateprops": [], "properties": {}, "geometry": {"type": "Point", "coordinates": [14.496, 53.29]}}, {"type": "Feature", "id": "http://data.archaeology.link/data/spphaefen/1314", "name": "Sevrier (1314)", "dateprops": [], "properties": {}, "geometry": {"type": "Point", "coordinates": [6.153, 45.864]}}, {"type": "Feature", "id": "http://data.archaeology.link/data/spphaefen/2771", "name": "Plateliai 3 (2771)", "dateprops": [], "properties": {}, "geometry": {"type": "Point", "coordinates": [21.845, 56.043]}}, {"type": "Feature", "id": "http://data.archaeology.link/data/spphaefen/1205", "name": "Pont-Ch\u00e2teau, La Soudenais 5 (1205)", "dateprops": [], "properties": {}, "geometry": {"type": "Point", "coordinates": [-2.038, 47.454]}}, {"type": "Feature", "id": "http://data.archaeology.link/data/spphaefen/1454", "name": "Bodensee o. J. (W203) (1454)", "dateprops": [], "properties": {}, "geometry": {"type": "Point", "coordinates": [9.192, 47.697]}}, {"type": "Feature", "id": "http://data.archaeology.link/data/spphaefen/500", "name": "Kilbirnie Loch 2 (Mowat No. 76) (500)", "dateprops": [], "properties": {}, "geometry": {"type": "Point", "coordinates": [-4.672, 55.746]}}, {"type": "Feature", "id": "http://data.archaeology.link/data/spphaefen/520", "name": "Loch Arthur 2 (Mowat No. 93) (520)", "dateprops": [], "properties": {}, "geometry": {"type": "Point", "coordinates": [-3.717, 55.003]}}, {"type": "Feature", "id": "http://data.archaeology.link/data/spphaefen/2370", "name": "Ballintober (Gregory I023) (2370)", "dateprops": [], "properties": {}, "geometry": {"type": "Point", "coordinates": [-9.298, 53.745]}}, {"type": "Feature", "id": "http://data.archaeology.link/data/spphaefen/1121", "name": "Lyon 3 (1121)", "dateprops": [], "properties": {}, "geometry": {"type": "Point", "coordinates": [4.826, 45.758]}}, {"type": "Feature", "id": "http://data.archaeology.link/data/spphaefen/1764", "name": "Hohn (1764)", "dateprops": [], "properties": {}, "geometry": {"type": "Point", "coordinates": [9.501, 54.299]}}, {"type": "Feature", "id": "http://data.archaeology.link/data/spphaefen/1844", "name": "K\u00f6ln (Museum Ludwig) (1844)", "dateprops": [], "properties": {}, "geometry": {"type": "Point", "coordinates": [6.96, 50.941]}}, {"type": "Feature", "id": "http://data.archaeology.link/data/spphaefen/928", "name": "Varn\u00e6s Skovs\u00f8 (928)", "dateprops": [], "properties": {}, "geometry": {"type": "Point", "coordinates": [9.568, 55.014]}}, {"type": "Feature", "id": "http://data.archaeology.link/data/spphaefen/2954", "name": "Czarlina, pow. Koscierzyna (2954)", "dateprops": [], "properties": {}, "geometry": {"type": "Point", "coordinates": [17.917, 54.019]}}, {"type": "Feature", "id": "http://data.archaeology.link/data/spphaefen/3208", "name": "Stare gmajne III, Sl-76 (3208)", "dateprops": [], "properties": {}, "geometry": {"type": "Point", "coordinates": [14.331, 45.959]}}, {"type": "Feature", "id": "http://data.archaeology.link/data/spphaefen/564", "name": "Lochlea 5 (Mowat No. 128) (564)", "dateprops": [], "properties": {}, "geometry": {"type": "Point", "coordinates": [-4.446, 55.543]}}, {"type": "Feature", "id": "http://data.archaeology.link/data/spphaefen/55", "name": "Amberley 2 (55)", "dateprops": [], "properties": {}, "geometry": {"type": "Point", "coordinates": [-0.537, 50.917]}}, {"type": "Feature", "id": "http://data.archaeology.link/data/spphaefen/1014", "name": "Carentan, 1846 (1014)", "dateprops": [], "properties": {}, "geometry": {"type": "Point", "coordinates": [-1.24, 49.305]}}, {"type": "Feature", "id": "http://data.archaeology.link/data/spphaefen/3207", "name": "Stare gmajne II, Sl-75 (3207)", "dateprops": [], "properties": {}, "geometry": {"type": "Point", "coordinates": [14.331, 45.959]}}, {"type": "Feature", "id": "http://data.archaeology.link/data/spphaefen/1728", "name": "Hamburg-Lohbr\u00fcgge (1728)", "dateprops": [], "properties": {}, "geometry": {"type": "Point", "coordinates": [10.15, 53.509]}}, {"type": "Feature", "id": "http://data.archaeology.link/data/spphaefen/1722", "name": "Hamburg- Allerm\u00f6he (1722)", "dateprops": [], "properties": {}, "geometry": {"type": "Point", "coordinates": [10.142, 53.472]}}, {"type": "Feature", "id": "http://data.archaeology.link/data/spphaefen/2684", "name": "Lago di Bracciano (La Marmotta 1) (2684)", "dateprops": [], "properties": {}, "geometry": {"type": "Point", "coordinates": [12.235, 42.122]}}, {"type": "Feature", "id": "http://data.archaeology.link/data/spphaefen/3194", "name": "Krtine I, Sl-04 (3194)", "dateprops": [], "properties": {}, "geometry": {"type": "Point", "coordinates": [14.652, 46.148]}}, {"type": "Feature", "id": "http://data.archaeology.link/data/spphaefen/2114", "name": "R\u00fcde 3 (2114)", "dateprops": [], "properties": {}, "geometry": {"type": "Point", "coordinates": [9.559, 54.824]}}, {"type": "Feature", "id": "http://data.archaeology.link/data/spphaefen/2581", "name": "Meelick (Gregory I308) (2581)", "dateprops": [], "properties": {}, "geometry": {"type": "Point", "coordinates": [-8.688, 52.68]}}, {"type": "Feature", "id": "http://data.archaeology.link/data/spphaefen/2621", "name": "Trinity Island 6 (Gregory I378) (2621)", "dateprops": [], "properties": {}, "geometry": {"type": "Point", "coordinates": [-7.465, 53.986]}}, {"type": "Feature", "id": "http://data.archaeology.link/data/spphaefen/2647", "name": "Brenno Useria 2 (2647)", "dateprops": [], "properties": {}, "geometry": {"type": "Point", "coordinates": [8.882, 45.862]}}, {"type": "Feature", "id": "http://data.archaeology.link/data/spphaefen/1159", "name": "Orl\u00e9ans, 1964 (1159)", "dateprops": [], "properties": {}, "geometry": {"type": "Point", "coordinates": [1.91, 47.898]}}, {"type": "Feature", "id": "http://data.archaeology.link/data/spphaefen/3209", "name": "Veliki Mah, Sl-08 (3209)", "dateprops": [], "properties": {}, "geometry": {"type": "Point", "coordinates": [14.333, 45.961]}}, {"type": "Feature", "id": "http://data.archaeology.link/data/spphaefen/172", "name": "Nocton Delph 1 (172)", "dateprops": [], "properties": {}, "geometry": {"type": "Point", "coordinates": [-0.358, 53.17]}}, {"type": "Feature", "id": "http://data.archaeology.link/data/spphaefen/2292", "name": "Waren (2292)", "dateprops": [], "properties": {}, "geometry": {"type": "Point", "coordinates": [12.716, 53.506]}}, {"type": "Feature", "id": "http://data.archaeology.link/data/spphaefen/319", "name": "Lower Lough Erne, Gubbaroe Townland (Fry No. 4; Gregory I210) (319)", "dateprops": [], "properties": {}, "geometry": {"type": "Point", "coordinates": [-7.661, 54.382]}}, {"type": "Feature", "id": "http://data.archaeology.link/data/spphaefen/3172", "name": "River Medveditsa (3172)", "dateprops": [], "properties": {}, "geometry": {"type": "Point", "coordinates": [38.11, 57.393]}}, {"type": "Feature", "id": "http://data.archaeology.link/data/spphaefen/469", "name": "Finlaystone (Mowat No. 46) (469)", "dateprops": [], "properties": {}, "geometry": {"type": "Point", "coordinates": [-4.626, 55.931]}}, {"type": "Feature", "id": "http://data.archaeology.link/data/spphaefen/227", "name": "Warrington 2 (227)", "dateprops": [], "properties": {}, "geometry": {"type": "Point", "coordinates": [-2.592, 53.372]}}, {"type": "Feature", "id": "http://data.archaeology.link/data/spphaefen/1956", "name": "M\u00f6lschow (1956)", "dateprops": [], "properties": {}, "geometry": {"type": "Point", "coordinates": [13.833, 54.077]}}, {"type": "Feature", "id": "http://data.archaeology.link/data/spphaefen/2230", "name": "Stralsund, Frankenhof (2230)", "dateprops": [], "properties": {}, "geometry": {"type": "Point", "coordinates": [13.099, 54.31]}}, {"type": "Feature", "id": "http://data.archaeology.link/data/spphaefen/2847", "name": "Rotterdam-Hoogstraat (2847)", "dateprops": [], "properties": {}, "geometry": {"type": "Point", "coordinates": [4.487, 51.921]}}, {"type": "Feature", "id": "http://data.archaeology.link/data/spphaefen/2264", "name": "Varrel (2264)", "dateprops": [], "properties": {}, "geometry": {"type": "Point", "coordinates": [8.752, 52.602]}}, {"type": "Feature", "id": "http://data.archaeology.link/data/spphaefen/2382", "name": "Ballynahinch 1 (Gregory I036) (2382)", "dateprops": [], "properties": {}, "geometry": {"type": "Point", "coordinates": [-7.664, 53.399]}}, {"type": "Feature", "id": "http://data.archaeology.link/data/spphaefen/2556", "name": "Lough Gara 11 (Gregory I289) (2556)", "dateprops": [], "properties": {}, "geometry": {"type": "Point", "coordinates": [-8.438, 53.934]}}, {"type": "Feature", "id": "http://data.archaeology.link/data/spphaefen/2959", "name": "Cz\u00f3ln\u00f3w, pow. Myslib\u00f3rz (2959)", "dateprops": [], "properties": {}, "geometry": {"type": "Point", "coordinates": [14.872, 52.969]}}, {"type": "Feature", "id": "http://data.archaeology.link/data/spphaefen/2997", "name": "Jelowa, pow. Opole (2997)", "dateprops": [], "properties": {}, "geometry": {"type": "Point", "coordinates": [18.073, 50.797]}}, {"type": "Feature", "id": "http://data.archaeology.link/data/spphaefen/28", "name": "Antwerpen, Lefebvre 3 (28)", "dateprops": [], "properties": {}, "geometry": {"type": "Point", "coordinates": [4.407, 51.24]}}, {"type": "Feature", "id": "http://data.archaeology.link/data/spphaefen/807", "name": "Kirkebjerg, Gram (807)", "dateprops": [], "properties": {}, "geometry": {"type": "Point", "coordinates": [9.047, 55.292]}}, {"type": "Feature", "id": "http://data.archaeology.link/data/spphaefen/534", "name": "Loch Glashan 2 (Mowat No. 103) (534)", "dateprops": [], "properties": {}, "geometry": {"type": "Point", "coordinates": [-5.352, 56.08]}}, {"type": "Feature", "id": "http://data.archaeology.link/data/spphaefen/1724", "name": "Hamburg-Altstadt (1724)", "dateprops": [], "properties": {}, "geometry": {"type": "Point", "coordinates": [10.001, 53.548]}}, {"type": "Feature", "id": "http://data.archaeology.link/data/spphaefen/2005", "name": "Neustrelitz (2005)", "dateprops": [], "properties": {}, "geometry": {"type": "Point", "coordinates": [13.073, 53.367]}}, {"type": "Feature", "id": "http://data.archaeology.link/data/spphaefen/524", "name": "Loch Doon - paddle (Mowat No. 101) (524)", "dateprops": [], "properties": {}, "geometry": {"type": "Point", "coordinates": [-4.379, 55.224]}}, {"type": "Feature", "id": "http://data.archaeology.link/data/spphaefen/1990", "name": "Neustadt LA 156 - Einbaum 5 (1990)", "dateprops": [], "properties": {}, "geometry": {"type": "Point", "coordinates": [10.816, 54.098]}}, {"type": "Feature", "id": "http://data.archaeology.link/data/spphaefen/1247", "name": "Port-de-Lanne, 1967 (1247)", "dateprops": [], "properties": {}, "geometry": {"type": "Point", "coordinates": [-1.192, 43.568]}}, {"type": "Feature", "id": "http://data.archaeology.link/data/spphaefen/1943", "name": "Minden (1943)", "dateprops": [], "properties": {}, "geometry": {"type": "Point", "coordinates": [8.923, 52.288]}}, {"type": "Feature", "id": "http://data.archaeology.link/data/spphaefen/2932", "name": "Bogumil\u00f3w, pow. Sieradz (2932)", "dateprops": [], "properties": {}, "geometry": {"type": "Point", "coordinates": [18.752, 51.547]}}, {"type": "Feature", "id": "http://data.archaeology.link/data/spphaefen/3022", "name": "Laskowica Wielka, pow. Wagrowiec (3022)", "dateprops": [], "properties": {}, "geometry": {"type": "Point", "coordinates": [17.262, 52.9]}}, {"type": "Feature", "id": "http://data.archaeology.link/data/spphaefen/884", "name": "Skarres\u00f8, Kolindsund (884)", "dateprops": [], "properties": {}, "geometry": {"type": "Point", "coordinates": [10.531, 56.36]}}, {"type": "Feature", "id": "http://data.archaeology.link/data/spphaefen/2677", "name": "Gerola, 1994 (2677)", "dateprops": [], "properties": {}, "geometry": {"type": "Point", "coordinates": [9.551, 46.06]}}, {"type": "Feature", "id": "http://data.archaeology.link/data/spphaefen/5", "name": "Gr\u00fcnwaldsee 1 (5)", "dateprops": [], "properties": {}, "geometry": {"type": "Point", "coordinates": [13.544, 47.262]}}, {"type": "Feature", "id": "http://data.archaeology.link/data/spphaefen/79", "name": "Burpham 2 (79)", "dateprops": [], "properties": {}, "geometry": {"type": "Point", "coordinates": [-0.528, 50.871]}}, {"type": "Feature", "id": "http://data.archaeology.link/data/spphaefen/1007", "name": "Buthiers-et-Avouay, 1904 (1007)", "dateprops": [], "properties": {}, "geometry": {"type": "Point", "coordinates": [6.015, 47.372]}}, {"type": "Feature", "id": "http://data.archaeology.link/data/spphaefen/683", "name": "Star\u00e9 Mesto (683)", "dateprops": [], "properties": {}, "geometry": {"type": "Point", "coordinates": [17.448, 49.069]}}, {"type": "Feature", "id": "http://data.archaeology.link/data/spphaefen/342", "name": "Randalstown 3 (Gregory I336) (342)", "dateprops": [], "properties": {}, "geometry": {"type": "Point", "coordinates": [-6.361, 54.758]}}, {"type": "Feature", "id": "http://data.archaeology.link/data/spphaefen/1331", "name": "Taillebourg - P6 (1331)", "dateprops": [], "properties": {}, "geometry": {"type": "Point", "coordinates": [-0.641, 45.827]}}, {"type": "Feature", "id": "http://data.archaeology.link/data/spphaefen/743", "name": "Felsted kog, Nissum Fjord (Il) (743)", "dateprops": [], "properties": {}, "geometry": {"type": "Point", "coordinates": [8.263, 56.309]}}, {"type": "Feature", "id": "http://data.archaeology.link/data/spphaefen/2180", "name": "Staffelstein (2180)", "dateprops": [], "properties": {}, "geometry": {"type": "Point", "coordinates": [10.973, 50.109]}}, {"type": "Feature", "id": "http://data.archaeology.link/data/spphaefen/1766", "name": "Holnis (1766)", "dateprops": [], "properties": {}, "geometry": {"type": "Point", "coordinates": [9.624, 54.876]}}, {"type": "Feature", "id": "http://data.archaeology.link/data/spphaefen/1777", "name": "Irlacher Weiher (1777)", "dateprops": [], "properties": {}, "geometry": {"type": "Point", "coordinates": [12.278, 47.943]}}, {"type": "Feature", "id": "http://data.archaeology.link/data/spphaefen/1047", "name": "Conihout (1047)", "dateprops": [], "properties": {}, "geometry": {"type": "Point", "coordinates": [0.816, 49.403]}}, {"type": "Feature", "id": "http://data.archaeology.link/data/spphaefen/2234", "name": "Stuttgart - Gaisburg (2234)", "dateprops": [], "properties": {}, "geometry": {"type": "Point", "coordinates": [9.226, 48.784]}}, {"type": "Feature", "id": "http://data.archaeology.link/data/spphaefen/2494", "name": "Dysert marshes 3 (Gregory I191) (2494)", "dateprops": [], "properties": {}, "geometry": {"type": "Point", "coordinates": [-9.634, 52.437]}}, {"type": "Feature", "id": "http://data.archaeology.link/data/spphaefen/2496", "name": "Fahy (Gregory I197) (2496)", "dateprops": [], "properties": {}, "geometry": {"type": "Point", "coordinates": [-8.019, 54.145]}}, {"type": "Feature", "id": "http://data.archaeology.link/data/spphaefen/2596", "name": "River Barrow 1 (Gregory I338) (2596)", "dateprops": [], "properties": {}, "geometry": {"type": "Point", "coordinates": [-7.078, 53.118]}}, {"type": "Feature", "id": "http://data.archaeology.link/data/spphaefen/3156", "name": "Confluence of Pron and Oka R., 1992 (3156)", "dateprops": [], "properties": {}, "geometry": {"type": "Point", "coordinates": [41.01, 54.747]}}, {"type": "Feature", "id": "http://data.archaeology.link/data/spphaefen/3096", "name": "Stettin (Museumsst\u00fcck ohne Fundangabe) (3096)", "dateprops": [], "properties": {}, "geometry": {"type": "Point", "coordinates": [14.554, 53.428]}}, {"type": "Feature", "id": "http://data.archaeology.link/data/spphaefen/1792", "name": "Kap Horn Wrack IV (1792)", "dateprops": [], "properties": {}, "geometry": {"type": "Point", "coordinates": [13.719, 52.931]}}, {"type": "Feature", "id": "http://data.archaeology.link/data/spphaefen/1041", "name": "Chaudeney-sur-Moselle I (1041)", "dateprops": [], "properties": {}, "geometry": {"type": "Point", "coordinates": [5.898, 48.654]}}, {"type": "Feature", "id": "http://data.archaeology.link/data/spphaefen/1144", "name": "Nandy 1, Seine-et-Marne (1144)", "dateprops": [], "properties": {}, "geometry": {"type": "Point", "coordinates": [2.547, 48.57]}}, {"type": "Feature", "id": "http://data.archaeology.link/data/spphaefen/3106", "name": "Swidnica (Museumsst\u00fcck ohne Fundangabe) (3106)", "dateprops": [], "properties": {}, "geometry": {"type": "Point", "coordinates": [16.488, 50.843]}}, {"type": "Feature", "id": "http://data.archaeology.link/data/spphaefen/1486", "name": "Bremen-Freihafen 4 (1486)", "dateprops": [], "properties": {}, "geometry": {"type": "Point", "coordinates": [8.784, 53.091]}}, {"type": "Feature", "id": "http://data.archaeology.link/data/spphaefen/750", "name": "Flensborg Fjord (I) (750)", "dateprops": [], "properties": {}, "geometry": {"type": "Point", "coordinates": [9.456, 54.837]}}, {"type": "Feature", "id": "http://data.archaeology.link/data/spphaefen/1778", "name": "Isar (1778)", "dateprops": [], "properties": {}, "geometry": {"type": "Point", "coordinates": [12.002, 48.497]}}, {"type": "Feature", "id": "http://data.archaeology.link/data/spphaefen/822", "name": "L\u00f8gstrops Eng (822)", "dateprops": [], "properties": {}, "geometry": {"type": "Point", "coordinates": [9.908, 56.384]}}, {"type": "Feature", "id": "http://data.archaeology.link/data/spphaefen/2659", "name": "Eremitani 1 (2659)", "dateprops": [], "properties": {}, "geometry": {"type": "Point", "coordinates": [11.787, 45.566]}}, {"type": "Feature", "id": "http://data.archaeology.link/data/spphaefen/2509", "name": "Illanee 3 (Gregory I220) (2509)", "dateprops": [], "properties": {}, "geometry": {"type": "Point", "coordinates": [-7.405, 53.475]}}, {"type": "Feature", "id": "http://data.archaeology.link/data/spphaefen/1450", "name": "Bodensee 1998/2 (W250) (1450)", "dateprops": [], "properties": {}, "geometry": {"type": "Point", "coordinates": [9.057, 47.71]}}, {"type": "Feature", "id": "http://data.archaeology.link/data/spphaefen/2235", "name": "S\u00fcderbrarup (2235)", "dateprops": [], "properties": {}, "geometry": {"type": "Point", "coordinates": [9.773, 54.637]}}, {"type": "Feature", "id": "http://data.archaeology.link/data/spphaefen/1390", "name": "Bad Schmiedeberg (1390)", "dateprops": [], "properties": {}, "geometry": {"type": "Point", "coordinates": [12.828, 51.715]}}, {"type": "Feature", "id": "http://data.archaeology.link/data/spphaefen/694", "name": "Alb\u00e6k, Skjern \u00c5 (694)", "dateprops": [], "properties": {}, "geometry": {"type": "Point", "coordinates": [8.596, 55.946]}}, {"type": "Feature", "id": "http://data.archaeology.link/data/spphaefen/2896", "name": "Birkenes, Aust-Agder (2896)", "dateprops": [], "properties": {}, "geometry": {"type": "Point", "coordinates": [8.187, 58.433]}}, {"type": "Feature", "id": "http://data.archaeology.link/data/spphaefen/1599", "name": "Federseeried 1923 (1599)", "dateprops": [], "properties": {}, "geometry": {"type": "Point", "coordinates": [9.642, 48.079]}}, {"type": "Feature", "id": "http://data.archaeology.link/data/spphaefen/3301", "name": "Bienne-Vigneule 1930-1 (3301)", "dateprops": [], "properties": {}, "geometry": {"type": "Point", "coordinates": [7.231, 47.132]}}, {"type": "Feature", "id": "http://data.archaeology.link/data/spphaefen/1008", "name": "Caen, 1787 (1008)", "dateprops": [], "properties": {}, "geometry": {"type": "Point", "coordinates": [-0.358, 49.176]}}, {"type": "Feature", "id": "http://data.archaeology.link/data/spphaefen/3110", "name": "Szczebra, pow. August\u00f3w (3110)", "dateprops": [], "properties": {}, "geometry": {"type": "Point", "coordinates": [22.975, 53.906]}}, {"type": "Feature", "id": "http://data.archaeology.link/data/spphaefen/60", "name": "Baddiley Mere (60)", "dateprops": [], "properties": {}, "geometry": {"type": "Point", "coordinates": [-2.604, 53.048]}}, {"type": "Feature", "id": "http://data.archaeology.link/data/spphaefen/1475", "name": "Bremen (Museumsst\u00fcck ohne Fundangabe) (1475)", "dateprops": [], "properties": {}, "geometry": {"type": "Point", "coordinates": [8.801, 53.08]}}, {"type": "Feature", "id": "http://data.archaeology.link/data/spphaefen/924", "name": "Undl\u00f8se Mose (924)", "dateprops": [], "properties": {}, "geometry": {"type": "Point", "coordinates": [11.588, 55.604]}}, {"type": "Feature", "id": "http://data.archaeology.link/data/spphaefen/2087", "name": "Raum Obermain (Museumsst\u00fcck ohne Fundangabe) (2087)", "dateprops": [], "properties": {}, "geometry": {"type": "Point", "coordinates": [10.886, 49.891]}}, {"type": "Feature", "id": "http://data.archaeology.link/data/spphaefen/3329", "name": "Cortaillod (3329)", "dateprops": [], "properties": {}, "geometry": {"type": "Point", "coordinates": [6.851, 46.938]}}, {"type": "Feature", "id": "http://data.archaeology.link/data/spphaefen/2276", "name": "Viereth (2276)", "dateprops": [], "properties": {}, "geometry": {"type": "Point", "coordinates": [10.755, 49.935]}}, {"type": "Feature", "id": "http://data.archaeology.link/data/spphaefen/1186", "name": "Pont-Ch\u00e2teau, Catiho 2 (1186)", "dateprops": [], "properties": {}, "geometry": {"type": "Point", "coordinates": [-2.035, 47.461]}}, {"type": "Feature", "id": "http://data.archaeology.link/data/spphaefen/889", "name": "Skjerne S\u00f8 (Skerne) (889)", "dateprops": [], "properties": {}, "geometry": {"type": "Point", "coordinates": [11.942, 54.899]}}, {"type": "Feature", "id": "http://data.archaeology.link/data/spphaefen/3291", "name": "Bevaix 1990-2 (3291)", "dateprops": [], "properties": {}, "geometry": {"type": "Point", "coordinates": [6.827, 46.923]}}, {"type": "Feature", "id": "http://data.archaeology.link/data/spphaefen/1075", "name": "Fontcouverte (La M\u00e9narderie - pirogue 2) (1075)", "dateprops": [], "properties": {}, "geometry": {"type": "Point", "coordinates": [-0.621, 45.769]}}, {"type": "Feature", "id": "http://data.archaeology.link/data/spphaefen/1909", "name": "Magdeburg-Salbke (1909)", "dateprops": [], "properties": {}, "geometry": {"type": "Point", "coordinates": [11.662, 52.099]}}, {"type": "Feature", "id": "http://data.archaeology.link/data/spphaefen/2747", "name": "Torbiera della Polada, Lonato (2747)", "dateprops": [], "properties": {}, "geometry": {"type": "Point", "coordinates": [10.503, 45.468]}}, {"type": "Feature", "id": "http://data.archaeology.link/data/spphaefen/681", "name": "Spytihnev (681)", "dateprops": [], "properties": {}, "geometry": {"type": "Point", "coordinates": [17.502, 49.142]}}, {"type": "Feature", "id": "http://data.archaeology.link/data/spphaefen/2153", "name": "Seeburg, Lkr. Mansfeld-S\u00fcdharz (2153)", "dateprops": [], "properties": {}, "geometry": {"type": "Point", "coordinates": [11.697, 51.473]}}, {"type": "Feature", "id": "http://data.archaeology.link/data/spphaefen/3428", "name": "Chervonnoye (3428)", "dateprops": [], "properties": {}, "geometry": {"type": "Point", "coordinates": [30.575, 50.445]}}, {"type": "Feature", "id": "http://data.archaeology.link/data/spphaefen/74", "name": "Brentford (74)", "dateprops": [], "properties": {}, "geometry": {"type": "Point", "coordinates": [-0.3, 51.483]}}, {"type": "Feature", "id": "http://data.archaeology.link/data/spphaefen/1536", "name": "Dolberg (1536)", "dateprops": [], "properties": {}, "geometry": {"type": "Point", "coordinates": [7.916, 51.704]}}, {"type": "Feature", "id": "http://data.archaeology.link/data/spphaefen/3323", "name": "Colombier 1921-1 (3323)", "dateprops": [], "properties": {}, "geometry": {"type": "Point", "coordinates": [6.879, 46.966]}}, {"type": "Feature", "id": "http://data.archaeology.link/data/spphaefen/892", "name": "Skovlund (892)", "dateprops": [], "properties": {}, "geometry": {"type": "Point", "coordinates": [8.708, 55.738]}}, {"type": "Feature", "id": "http://data.archaeology.link/data/spphaefen/2729", "name": "San Giorgio di Nogaro (2729)", "dateprops": [], "properties": {}, "geometry": {"type": "Point", "coordinates": [13.21, 45.834]}}, {"type": "Feature", "id": "http://data.archaeology.link/data/spphaefen/2988", "name": "Gotlandzka Glebia (2988)", "dateprops": [], "properties": {}, "geometry": {"type": "Point", "coordinates": [18.038, 55.97]}}, {"type": "Feature", "id": "http://data.archaeology.link/data/spphaefen/915", "name": "Tjele Langs\u00f8 (915)", "dateprops": [], "properties": {}, "geometry": {"type": "Point", "coordinates": [9.616, 56.532]}}, {"type": "Feature", "id": "http://data.archaeology.link/data/spphaefen/1874", "name": "Latferde (1874)", "dateprops": [], "properties": {}, "geometry": {"type": "Point", "coordinates": [9.427, 52.032]}}, {"type": "Feature", "id": "http://data.archaeology.link/data/spphaefen/2344", "name": "D\u00f6m\u00f6s (2344)", "dateprops": [], "properties": {}, "geometry": {"type": "Point", "coordinates": [18.915, 47.767]}}, {"type": "Feature", "id": "http://data.archaeology.link/data/spphaefen/2199", "name": "Steinhude (2199)", "dateprops": [], "properties": {}, "geometry": {"type": "Point", "coordinates": [9.349, 52.458]}}, {"type": "Feature", "id": "http://data.archaeology.link/data/spphaefen/2006", "name": "Neuwerk (2006)", "dateprops": [], "properties": {}, "geometry": {"type": "Point", "coordinates": [8.426, 53.91]}}, {"type": "Feature", "id": "http://data.archaeology.link/data/spphaefen/1289", "name": "Saint-Marcel (1289)", "dateprops": [], "properties": {}, "geometry": {"type": "Point", "coordinates": [4.78, 46.187]}}, {"type": "Feature", "id": "http://data.archaeology.link/data/spphaefen/3214", "name": "Aby (3214)", "dateprops": [], "properties": {}, "geometry": {"type": "Point", "coordinates": [21.331, 65.035]}}, {"type": "Feature", "id": "http://data.archaeology.link/data/spphaefen/1995", "name": "Neustadt LA 156 - Paddel 11 (1995)", "dateprops": [], "properties": {}, "geometry": {"type": "Point", "coordinates": [10.815, 54.098]}}, {"type": "Feature", "id": "http://data.archaeology.link/data/spphaefen/3157", "name": "Confluence of Protva and Oka R., 1992 (3157)", "dateprops": [], "properties": {}, "geometry": {"type": "Point", "coordinates": [37.273, 54.847]}}, {"type": "Feature", "id": "http://data.archaeology.link/data/spphaefen/3005", "name": "Klaczno, pow. Byt\u00f3w (3005)", "dateprops": [], "properties": {}, "geometry": {"type": "Point", "coordinates": [17.54, 54.07]}}, {"type": "Feature", "id": "http://data.archaeology.link/data/spphaefen/2851", "name": "Terbregge (2851)", "dateprops": [], "properties": {}, "geometry": {"type": "Point", "coordinates": [4.519, 51.956]}}, {"type": "Feature", "id": "http://data.archaeology.link/data/spphaefen/3403", "name": "Sutz-Lattrigen 1923-2 (3403)", "dateprops": [], "properties": {}, "geometry": {"type": "Point", "coordinates": [7.207, 47.1]}}, {"type": "Feature", "id": "http://data.archaeology.link/data/spphaefen/2120", "name": "Salzm\u00fcnde (2120)", "dateprops": [], "properties": {}, "geometry": {"type": "Point", "coordinates": [11.828, 51.531]}}, {"type": "Feature", "id": "http://data.archaeology.link/data/spphaefen/1585", "name": "Evensen, Lkr. Region Hannover (1585)", "dateprops": [], "properties": {}, "geometry": {"type": "Point", "coordinates": [9.543, 52.571]}}, {"type": "Feature", "id": "http://data.archaeology.link/data/spphaefen/3450", "name": "Zaritshanka (3450)", "dateprops": [], "properties": {}, "geometry": {"type": "Point", "coordinates": [35.276, 48.611]}}, {"type": "Feature", "id": "http://data.archaeology.link/data/spphaefen/828", "name": "Maglemose (828)", "dateprops": [], "properties": {}, "geometry": {"type": "Point", "coordinates": [12.035, 55.062]}}, {"type": "Feature", "id": "http://data.archaeology.link/data/spphaefen/1381", "name": "Aschaffenburg (1381)", "dateprops": [], "properties": {}, "geometry": {"type": "Point", "coordinates": [9.139, 49.976]}}, {"type": "Feature", "id": "http://data.archaeology.link/data/spphaefen/2165", "name": "Sewekow (2165)", "dateprops": [], "properties": {}, "geometry": {"type": "Point", "coordinates": [12.656, 53.249]}}, {"type": "Feature", "id": "http://data.archaeology.link/data/spphaefen/2840", "name": "Oss (2840)", "dateprops": [], "properties": {}, "geometry": {"type": "Point", "coordinates": [5.578, 51.782]}}, {"type": "Feature", "id": "http://data.archaeology.link/data/spphaefen/730", "name": "Egen N\u00e6s (730)", "dateprops": [], "properties": {}, "geometry": {"type": "Point", "coordinates": [9.84, 54.973]}}, {"type": "Feature", "id": "http://data.archaeology.link/data/spphaefen/2328", "name": "Xanten-Vynen (2328)", "dateprops": [], "properties": {}, "geometry": {"type": "Point", "coordinates": [6.42, 51.699]}}, {"type": "Feature", "id": "http://data.archaeology.link/data/spphaefen/1915", "name": "Mainz 2 (1915)", "dateprops": [], "properties": {}, "geometry": {"type": "Point", "coordinates": [8.275, 50.003]}}, {"type": "Feature", "id": "http://data.archaeology.link/data/spphaefen/414", "name": "Upper Lough Erne, Corradillar Bay (Fry No. 10; Gregory I114) (414)", "dateprops": [], "properties": {}, "geometry": {"type": "Point", "coordinates": [-7.473, 54.193]}}, {"type": "Feature", "id": "http://data.archaeology.link/data/spphaefen/2670", "name": "Formigara, 1961 (2670)", "dateprops": [], "properties": {}, "geometry": {"type": "Point", "coordinates": [9.766, 45.22]}}, {"type": "Feature", "id": "http://data.archaeology.link/data/spphaefen/2197", "name": "Steinheim (2197)", "dateprops": [], "properties": {}, "geometry": {"type": "Point", "coordinates": [8.903, 50.129]}}, {"type": "Feature", "id": "http://data.archaeology.link/data/spphaefen/2252", "name": "Treia (2252)", "dateprops": [], "properties": {}, "geometry": {"type": "Point", "coordinates": [9.313, 54.515]}}, {"type": "Feature", "id": "http://data.archaeology.link/data/spphaefen/2607", "name": "Strokestown (Gregory I353) (2607)", "dateprops": [], "properties": {}, "geometry": {"type": "Point", "coordinates": [-8.119, 53.78]}}, {"type": "Feature", "id": "http://data.archaeology.link/data/spphaefen/2295", "name": "Weibeck (2295)", "dateprops": [], "properties": {}, "geometry": {"type": "Point", "coordinates": [9.282, 52.151]}}, {"type": "Feature", "id": "http://data.archaeology.link/data/spphaefen/3062", "name": "Poznan (Museumsst\u00fcck ohne Fundangabe) (3062)", "dateprops": [], "properties": {}, "geometry": {"type": "Point", "coordinates": [16.937, 52.407]}}, {"type": "Feature", "id": "http://data.archaeology.link/data/spphaefen/2505", "name": "Heathlodge 2 (Gregory I215) (2505)", "dateprops": [], "properties": {}, "geometry": {"type": "Point", "coordinates": [-7.371, 53.938]}}, {"type": "Feature", "id": "http://data.archaeology.link/data/spphaefen/635", "name": "Oprisavci II (635)", "dateprops": [], "properties": {}, "geometry": {"type": "Point", "coordinates": [18.228, 45.133]}}, {"type": "Feature", "id": "http://data.archaeology.link/data/spphaefen/2093", "name": "Reichenau Holzdecke (Reichenau - Seestra\u00dfe Holzdecke) (2093)", "dateprops": [], "properties": {}, "geometry": {"type": "Point", "coordinates": [9.073, 47.696]}}, {"type": "Feature", "id": "http://data.archaeology.link/data/spphaefen/675", "name": "Podebrady 2 (675)", "dateprops": [], "properties": {}, "geometry": {"type": "Point", "coordinates": [15.119, 50.14]}}, {"type": "Feature", "id": "http://data.archaeology.link/data/spphaefen/2464", "name": "Derrya 2 (Gregory I136) (2464)", "dateprops": [], "properties": {}, "geometry": {"type": "Point", "coordinates": [-7.38, 53.667]}}, {"type": "Feature", "id": "http://data.archaeology.link/data/spphaefen/1439", "name": "Bodensee 1929 (1439)", "dateprops": [], "properties": {}, "geometry": {"type": "Point", "coordinates": [9.116, 47.683]}}, {"type": "Feature", "id": "http://data.archaeology.link/data/spphaefen/1882", "name": "Lehde (1882)", "dateprops": [], "properties": {}, "geometry": {"type": "Point", "coordinates": [13.992, 51.863]}}, {"type": "Feature", "id": "http://data.archaeology.link/data/spphaefen/492", "name": "Glasgow, Springfield 5 (Mowat No. 68) (492)", "dateprops": [], "properties": {}, "geometry": {"type": "Point", "coordinates": [-4.273, 55.854]}}, {"type": "Feature", "id": "http://data.archaeology.link/data/spphaefen/927", "name": "Varde \u00c5 (927)", "dateprops": [], "properties": {}, "geometry": {"type": "Point", "coordinates": [8.548, 55.644]}}, {"type": "Feature", "id": "http://data.archaeology.link/data/spphaefen/1070", "name": "Flines-les-Raches 2, 1803 (1070)", "dateprops": [], "properties": {}, "geometry": {"type": "Point", "coordinates": [3.183, 50.426]}}, {"type": "Feature", "id": "http://data.archaeology.link/data/spphaefen/2256", "name": "T\u00fcndern (2256)", "dateprops": [], "properties": {}, "geometry": {"type": "Point", "coordinates": [9.369, 52.061]}}, {"type": "Feature", "id": "http://data.archaeology.link/data/spphaefen/1939", "name": "Meggerdorf (1939)", "dateprops": [], "properties": {}, "geometry": {"type": "Point", "coordinates": [9.387, 54.357]}}, {"type": "Feature", "id": "http://data.archaeology.link/data/spphaefen/2445", "name": "Cornagall (Gregory I110) (2445)", "dateprops": [], "properties": {}, "geometry": {"type": "Point", "coordinates": [-7.016, 54.042]}}, {"type": "Feature", "id": "http://data.archaeology.link/data/spphaefen/1036", "name": "Ch\u00e2tenoy-en-Bresse (1036)", "dateprops": [], "properties": {}, "geometry": {"type": "Point", "coordinates": [4.924, 46.808]}}, {"type": "Feature", "id": "http://data.archaeology.link/data/spphaefen/299", "name": "Lough Mourne, West of Whitehead (Fry No. 109; Gregory I044) (299)", "dateprops": [], "properties": {}, "geometry": {"type": "Point", "coordinates": [-5.806, 54.763]}}, {"type": "Feature", "id": "http://data.archaeology.link/data/spphaefen/2060", "name": "Prien (2060)", "dateprops": [], "properties": {}, "geometry": {"type": "Point", "coordinates": [12.345, 47.856]}}, {"type": "Feature", "id": "http://data.archaeology.link/data/spphaefen/481", "name": "Glasgow, Clydehaugh 5 (Mowat No. 57) (481)", "dateprops": [], "properties": {}, "geometry": {"type": "Point", "coordinates": [-4.278, 55.854]}}, {"type": "Feature", "id": "http://data.archaeology.link/data/spphaefen/3260", "name": "Sk\u00e4rsj\u00f6 II (3260)", "dateprops": [], "properties": {}, "geometry": {"type": "Point", "coordinates": [15.688, 59.829]}}, {"type": "Feature", "id": "http://data.archaeology.link/data/spphaefen/3424", "name": "Yverdon 2 (3424)", "dateprops": [], "properties": {}, "geometry": {"type": "Point", "coordinates": [6.641, 46.776]}}, {"type": "Feature", "id": "http://data.archaeology.link/data/spphaefen/790", "name": "Horsekaer 2 (790)", "dateprops": [], "properties": {}, "geometry": {"type": "Point", "coordinates": [12.298, 55.737]}}, {"type": "Feature", "id": "http://data.archaeology.link/data/spphaefen/2862", "name": "Utrecht-Waterstraat 1 (2862)", "dateprops": [], "properties": {}, "geometry": {"type": "Point", "coordinates": [5.114, 52.095]}}, {"type": "Feature", "id": "http://data.archaeology.link/data/spphaefen/2791", "name": "Dordrecht (2791)", "dateprops": [], "properties": {}, "geometry": {"type": "Point", "coordinates": [4.665, 51.817]}}, {"type": "Feature", "id": "http://data.archaeology.link/data/spphaefen/2567", "name": "Lough Gara 6 (Gregory I284) (2567)", "dateprops": [], "properties": {}, "geometry": {"type": "Point", "coordinates": [-8.43, 53.952]}}, {"type": "Feature", "id": "http://data.archaeology.link/data/spphaefen/244", "name": "Wisbech 6 (244)", "dateprops": [], "properties": {}, "geometry": {"type": "Point", "coordinates": [0.079, 52.619]}}, {"type": "Feature", "id": "http://data.archaeology.link/data/spphaefen/2374", "name": "Ballydoolough 1 (Gregory I027) (2374)", "dateprops": [], "properties": {}, "geometry": {"type": "Point", "coordinates": [-9.458, 53.527]}}, {"type": "Feature", "id": "http://data.archaeology.link/data/spphaefen/184", "name": "Preston 1 (184)", "dateprops": [], "properties": {}, "geometry": {"type": "Point", "coordinates": [-2.727, 53.758]}}, {"type": "Feature", "id": "http://data.archaeology.link/data/spphaefen/1987", "name": "Neustadt LA 156 - Einbaum 2 (1987)", "dateprops": [], "properties": {}, "geometry": {"type": "Point", "coordinates": [10.815, 54.098]}}, {"type": "Feature", "id": "http://data.archaeology.link/data/spphaefen/2786", "name": "Deventer-Ijsselstraat I (2786)", "dateprops": [], "properties": {}, "geometry": {"type": "Point", "coordinates": [6.152, 52.253]}}, {"type": "Feature", "id": "http://data.archaeology.link/data/spphaefen/3339", "name": "Douanne-Vingrave 1928 (3339)", "dateprops": [], "properties": {}, "geometry": {"type": "Point", "coordinates": [7.18, 47.102]}}, {"type": "Feature", "id": "http://data.archaeology.link/data/spphaefen/2552", "name": "Lough Ennell 1 (Gregory I277) (2552)", "dateprops": [], "properties": {}, "geometry": {"type": "Point", "coordinates": [-7.406, 53.475]}}, {"type": "Feature", "id": "http://data.archaeology.link/data/spphaefen/586", "name": "Portbane (Mowat No. 144) (586)", "dateprops": [], "properties": {}, "geometry": {"type": "Point", "coordinates": [-4.007, 56.579]}}, {"type": "Feature", "id": "http://data.archaeology.link/data/spphaefen/1918", "name": "Mainz 5 (1918)", "dateprops": [], "properties": {}, "geometry": {"type": "Point", "coordinates": [8.275, 50.003]}}, {"type": "Feature", "id": "http://data.archaeology.link/data/spphaefen/1363", "name": "Alt B\u00fclk, Strande (1363)", "dateprops": [], "properties": {}, "geometry": {"type": "Point", "coordinates": [10.18, 54.446]}}, {"type": "Feature", "id": "http://data.archaeology.link/data/spphaefen/1237", "name": "Pont-de-la-Beauze-B (1237)", "dateprops": [], "properties": {}, "geometry": {"type": "Point", "coordinates": [0.193, 44.821]}}, {"type": "Feature", "id": "http://data.archaeology.link/data/spphaefen/3180", "name": "Tshutshye II (3180)", "dateprops": [], "properties": {}, "geometry": {"type": "Point", "coordinates": [39.518, 50.965]}}, {"type": "Feature", "id": "http://data.archaeology.link/data/spphaefen/276", "name": "Drumgay (Gregory I176) (276)", "dateprops": [], "properties": {}, "geometry": {"type": "Point", "coordinates": [-7.642, 54.355]}}, {"type": "Feature", "id": "http://data.archaeology.link/data/spphaefen/485", "name": "Glasgow, Old St Enoch's Church (Mowat No. 61) (485)", "dateprops": [], "properties": {}, "geometry": {"type": "Point", "coordinates": [-4.255, 55.857]}}, {"type": "Feature", "id": "http://data.archaeology.link/data/spphaefen/1287", "name": "Saint-Julien-en-Born, 1952 (1287)", "dateprops": [], "properties": {}, "geometry": {"type": "Point", "coordinates": [-1.221, 44.069]}}, {"type": "Feature", "id": "http://data.archaeology.link/data/spphaefen/1753", "name": "Heilbronn - Neckarau (1753)", "dateprops": [], "properties": {}, "geometry": {"type": "Point", "coordinates": [9.206, 49.166]}}, {"type": "Feature", "id": "http://data.archaeology.link/data/spphaefen/2401", "name": "Church Island (Gregory I061) (2401)", "dateprops": [], "properties": {}, "geometry": {"type": "Point", "coordinates": [-6.486, 54.789]}}, {"type": "Feature", "id": "http://data.archaeology.link/data/spphaefen/1438", "name": "Bodensee 1860 (W103) (1438)", "dateprops": [], "properties": {}, "geometry": {"type": "Point", "coordinates": [9.54, 47.596]}}, {"type": "Feature", "id": "http://data.archaeology.link/data/spphaefen/1721", "name": "Hamburg (Museumsst\u00fcck ohne Fundangabe) (1721)", "dateprops": [], "properties": {}, "geometry": {"type": "Point", "coordinates": [9.999, 53.54]}}, {"type": "Feature", "id": "http://data.archaeology.link/data/spphaefen/2498", "name": "Gaddaghanstown (Gregory I199) (2498)", "dateprops": [], "properties": {}, "geometry": {"type": "Point", "coordinates": [-7.411, 53.45]}}, {"type": "Feature", "id": "http://data.archaeology.link/data/spphaefen/136", "name": "Kentmere 2 (136)", "dateprops": [], "properties": {}, "geometry": {"type": "Point", "coordinates": [-2.836, 54.432]}}, {"type": "Feature", "id": "http://data.archaeology.link/data/spphaefen/1421", "name": "Berlin-Mitte (1421)", "dateprops": [], "properties": {}, "geometry": {"type": "Point", "coordinates": [13.407, 52.515]}}, {"type": "Feature", "id": "http://data.archaeology.link/data/spphaefen/1324", "name": "Taillebourg - P14 (1324)", "dateprops": [], "properties": {}, "geometry": {"type": "Point", "coordinates": [-0.64, 45.829]}}, {"type": "Feature", "id": "http://data.archaeology.link/data/spphaefen/2955", "name": "Czarne, Jezioro, pow. Olsztyn (2955)", "dateprops": [], "properties": {}, "geometry": {"type": "Point", "coordinates": [20.454, 53.782]}},